id,name,addr,lat,lng,dong,detailtype
0,브랭섬홀아시아아이스링크,제주특별자치도 서귀포시 대정읍 글로벌에듀로 234(3번게이트),33.2899717861053,126.287264884162,대정읍 구억리,41
1,(주)제주해양레저투명카약,제주특별자치도 제주시 애월읍 애월로1길 22,33.4623287239726,126.310472392965,애월읍 애월리,42
2,1100고지(휴게소),제주특별자치도 서귀포시 1100로 1555,33.3578491473629,126.46242448237,색달동,21
3,1100고지(휴게소),제주특별자치도 서귀포시 1100로 1555,33.3578491473629,126.46242448237,색달동,52
4,1100고지습지,제주특별자치도 서귀포시 색달동 산 1-2,33.3575245371214,126.462896523457,색달동,21
5,1112도로,제주특별자치도 제주시 명림로 584 (봉개동),33.4400488067904,126.625203401207,봉개동,52
6,4·3해원방사탑,제주특별자치도 제주시 신산로 82,33.5054858498659,126.534739597022,일도이동,52
7,5.16도로숲터널,제주특별자치도 서귀포시 남원읍 신례리 산 2-1,33.3641266493346,126.605070169993,남원읍 신례리,21
8,5.16도로숲터널,제주특별자치도 서귀포시 남원읍 신례리 산 2-1,33.3641266493346,126.605070169993,남원읍 신례리,52
9,513텐동,제주특별자치도 제주시 테우해안로 46,33.4957675896913,126.439986583796,내도동,31
10,9.81파크,제주특별자치도 제주시 애월읍 천덕로 880-24,33.3901019408173,126.366630862509,애월읍 어음리,21
11,9.81파크,제주특별자치도 제주시 애월읍 천덕로 880-24,33.3901019408173,126.366630862509,애월읍 어음리,46
12,9연대본부옛터,제주특별자치도 서귀포시 대정읍 상모리 3392-3,33.2308336103709,126.262690091467,대정읍 상모리,52
13,Cafe몽스파,제주특별자치도 제주시 서사로 28,33.5098306939312,126.519546932598,삼도일동,31
14,M1971요트투어,제주특별자치도 서귀포시 대정읍 최남단해안로 128,33.2101161544348,126.257132162474,대정읍 하모리,21
15,OK승마장,제주특별자치도 서귀포시 표선면 번영로 2595,33.4027748167943,126.783193857633,표선면 성읍리,45
16,SM디지털아트뮤지엄,제주특별자치도 제주시 애월읍 애월해안로 516-7,33.4776700973418,126.360000440645,애월읍 신엄리,22
17,THEWE,제주특별자치도 서귀포시 1100로 453-95,33.2858507894235,126.444618497938,회수동,33
18,THEWE,제주특별자치도 서귀포시 1100로 453-95,33.2858507894235,126.444618497938,회수동,46
19,minagrooming(미나그루밍),제주특별자치도 제주시 한림읍 한림해안로 116,33.4134758994744,126.259879733717,한림읍 한림리,12
20,minagrooming(미나그루밍),제주특별자치도 제주시 한림읍 한림해안로 116,33.4134758994744,126.259879733717,한림읍 한림리,21
21,minagrooming(미나그루밍),제주특별자치도 제주시 한림읍 한림해안로 116,33.4134758994744,126.259879733717,한림읍 한림리,45
22,minagrooming(미나그루밍),제주특별자치도 제주시 한림읍 한림해안로 116,33.4134758994744,126.259879733717,한림읍 한림리,51
23,가마오름,제주특별자치도 제주시 한경면 청수서5길 63,33.3058185911377,126.249548049838,한경면 청수리,11
24,가마오름진지동굴,제주특별자치도 제주시 한경면 청수서5길 63,33.3058185911377,126.249548049838,한경면 청수리,52
25,가메오름,제주특별자치도 제주시 애월읍 고내리 125,33.4643619920749,126.351247313808,애월읍 고내리,11
26,가뫼물,제주특별자치도 서귀포시 남원읍 남위남성로 168,33.289952291732,126.693455642978,남원읍 남원리,22
27,가문이오름(감은이오름),제주특별자치도 서귀포시 표선면 남조로 1487-73,33.4014287623403,126.675670597493,표선면 가시리,13
28,가세오름,제주특별자치도 서귀포시 표선면 녹산로 554,33.3931470723999,126.723166640003,표선면 가시리,11
29,가시림,제주특별자치도 서귀포시 표선면 녹산로5번길 171 (가시리),33.3611552278502,126.751599251566,표선면 가시리,31
30,가시림,제주특별자치도 서귀포시 표선면 녹산로5번길 171 (가시리),33.3611552278502,126.751599251566,표선면 가시리,51
31,가파도,제주특별자치도 서귀포시 대정읍 가파리,33.1697319370923,126.271293664433,대정읍 가파리,22
32,가파초등학교마라분교장,제주특별자치도 서귀포시 대정읍 마라로 58,33.1192950745963,126.266719497241,대정읍 가파리,21
33,각시바우오름,제주특별자치도 서귀포시 호근동 2112,33.276757462252,126.526958677517,호근동,12
34,간세공방,제주특별자치도 서귀포시 중정로 22,33.2474054910319,126.558657418955,서귀동,32
35,간세공방,제주특별자치도 서귀포시 중정로 22,33.2474054910319,126.558657418955,서귀동,48
36,감귤박물관,제주특별자치도 서귀포시 효돈순환로 441,33.271593041773,126.607428496419,신효동,32
37,감귤박물관월라봉산책로-생이소리길,제주특별자치도 서귀포시 효돈순환로 441,33.271593041773,126.607428496419,신효동,22
38,감귤상웨빵체험,제주특별자치도 서귀포시 남원읍 하례중앙로 95,33.269169761325,126.625351256955,남원읍 하례리,41
39,감수굴밭담길,제주특별자치도 제주시 구좌읍 평대7길 34,33.5310269077995,126.843267842652,구좌읍 평대리,11
40,갑자기히어로즈벽화길,제주특별자치도 제주시 애월읍 금성1길 29-3,33.4468784107838,126.299433475442,애월읍 금성리,23
41,갓전시관[갓전수교육관],제주특별자치도 제주시 조천읍 남조로 1904,33.4372107533967,126.67069358681,조천읍 교래리,32
42,강병대교회,제주특별자치도 서귀포시 대정읍 상모대서로 43-3,33.2266655675601,126.257374197062,대정읍 상모리,52
43,강정어촌계,제주특별자치도 서귀포시 말질로 290,33.2275607667399,126.47471504616,강정동,21
44,강정천유원지,제주특별자치도 서귀포시 강정통물로 (강정동),33.2356507580311,126.476243192853,강정동,42
45,개떼목장,제주특별자치도 서귀포시 안덕면 평화로 486 (덕수리),33.2793750671339,126.317938171587,안덕면 덕수리,31
46,개떼목장,제주특별자치도 서귀포시 안덕면 평화로 486 (덕수리),33.2793750671339,126.317938171587,안덕면 덕수리,45
47,개떼목장,제주특별자치도 서귀포시 안덕면 평화로 486 (덕수리),33.2793750671339,126.317938171587,안덕면 덕수리,51
48,개미남,제주특별자치도 제주시 구산로 26,33.4830325626322,126.537992708959,아라일동,45
49,개오름,제주특별자치도 서귀포시 표선면 성읍이리로57번길 162,33.4238317194182,126.76821649479,표선면 성읍리,12
50,개오리오름,제주특별자치도 제주시 봉개동,33.4917232670658,126.594687244154,봉개동,12
51,개인공간,제주특별자치도 제주시 매촌1길 3-1,33.5158782657484,126.58902497386,도련이동,45
52,갤러리2중선농원,제주특별자치도 제주시 영평길 269,33.4781647535585,126.570246815532,월평동,32
53,거린오름(북오름),제주특별자치도 서귀포시 안덕면 동광리 산 94,33.3026723449881,126.332023417872,안덕면 동광리,11
54,거문오름(UNESCO세계자연유산),제주특별자치도 제주시 조천읍 선교로 569-36,33.4569198735739,126.714752055141,조천읍 선흘리,12
55,거믄여해안경승지,제주특별자치도 서귀포시 516로,33.3250814262979,126.598850400937,동홍동 ,21
56,거슨새미오름,제주특별자치도 제주시 구좌읍 송당리 산 145,33.450578540529,126.760857439089,구좌읍 송당리,13
57,거인의정원,제주특별자치도 제주시 대원길 58,33.471844584242,126.535248115682,아라일동,32
58,거친오름,제주특별자치도 제주시 명림로 520 (봉개동),33.4443239221222,126.6266892746,봉개동,12
59,건강과성박물관,제주특별자치도 서귀포시 안덕면 일주서로 1611,33.2548469661363,126.346583683696,안덕면 감산리,32
60,건강장수마을산양리농어촌체험마을,제주시 한경면 중산간서로 3169,33.2940425711363,126.232918465012,한경면 청수리,41
61,걸매생태공원,제주특별자치도 서귀포시 서홍동 1207,33.2514199379663,126.554744909063,서홍동,22
62,걸매예술마을,제주특별자치도 서귀포시 서홍로 4-42,33.2499840598945,126.55506327599,서홍동,41
63,걸서악오름,제주특별자치도 서귀포시 남원읍 하례로 393-1,33.2820314973438,126.621213684907,남원읍 하례리,12
64,걸서악오름,제주특별자치도 서귀포시 남원읍 하례로 393-1,33.2820314973438,126.621213684907,남원읍 하례리,21
65,검멀레동굴,제주특별자치도 제주시 우도면,33.5064494277494,126.952985318412,우도면,22
66,검멀레해변,제주특별자치도 제주시 우도면 우도해안길,33.5244410859691,126.952301716975,우도면 연평리,21
67,게우지코지,제주특별자치도 서귀포시 하효동,33.2566103527058,126.618338420041,하효동,21
68,고근산(고공산),제주특별자치도 서귀포시 고근산로202번길 48,33.2707071526572,126.512798354601,서호동,11
69,고내리포구,제주특별자치도 제주시 애월읍 고내리,33.4658420909653,126.341341321372,애월읍 고내리,22
70,"고내봉(고내오름,고니오름,망오름)",제주특별자치도 제주시 애월읍 고내리 산 3-1,33.4600221944508,126.34066723695,애월읍 고내리,11
71,고려민박,제주특별자치도 제주시 추자면 영흥4길 66,33.9587091732006,126.29776164285,추자면 영흥리,12
72,고마워토토아뜰리에,제주특별자치도 제주시 애월읍 고성북길 112,33.469814211661,126.413086000887,애월읍 상귀리,31
73,고사리숲,제주특별자치도 제주시 애월읍 평화로 2715 제주관광대학교 내 창업보육센터 본관 315호,33.4474802259546,126.43430282708,애월읍 광령리,22
74,고산일과해안도로,제주특별자치도 서귀포시 대정읍 영락하동로 9-6,33.2563964540886,126.209954498632,대정읍 영락리,21
75,고살리숲길,제주특별자치도 서귀포시 남원읍 하례리 산 54-2,33.3171452760362,126.598519589705,남원읍 하례리,11
76,고성2119펜션위플레이독,제주특별자치도 서귀포시 성산읍 서성일로1136번길 10-1,33.444024389637,126.899752130045,성산읍 고성리,47
77,고씨주택,제주특별자치도 제주시 관덕로17길 27-1,33.5149162873584,126.528319477559,일도일동,23
78,고요산책,제주특별자치도 제주시 중앙로12길 5,33.5118191452655,126.523865453693,이도일동,22
79,고포잇다이브센터,제주특별자치도 서귀포시 이어도로 685-1,33.2347400373382,126.489058889298,강정동,41
80,고흐의정원,제주특별자치도 서귀포시 성산읍 삼달신풍로 126-5,33.3734094632983,126.844086486445,성산읍 삼달리,22
81,곤물,제주특별자치도 서귀포시 안덕면 화순서서로64번길 64-4,33.2518997633631,126.332795763511,안덕면 화순리,52
82,곤흘동(곤을동)마을터,제주특별자치도 제주시 화북1동 4438,33.5217955033773,126.557363496033,화북일동,52
83,골프탕탕,제주특별자치도 서귀포시 안덕면 산록남로 762번길 71,33.3029855205251,126.392815705307,안덕면 상천리,48
84,곱뜨락아띠향수공방,제주특별자치도 서귀포시 안덕면 사계중앙로3번길 22,33.2302117461154,126.299666444897,안덕면 사계리,46
85,공천포,제주특별자치도 서귀포시 남원읍 신례리,33.3396592626517,126.620155016799,남원읍 신례리,52
86,공천포구,제주특별자치도 서귀포시 남원읍 신례리,33.3396592626517,126.620155016799,남원읍 신례리,23
87,곶자왈,제주특별자치도 서귀포시 대정읍 신평리,33.2669999460488,126.256349864542,대정읍 신평리,11
88,곽지패총,제주특별자치도 제주시 애월읍 곽지리 2043-1,33.4459906221283,126.307087715214,애월읍 곽지리,52
89,곽지해수욕장,제주특별자치도 제주시 애월읍 애월원당길 (곽지리),33.4519158879419,126.322595382967,애월읍 곽지리,42
90,곽지해수욕장야영장,제주특별자치도 제주시 애월읍 곽지리 1565,33.4507837937137,126.305537194637,애월읍 곽지리,42
91,관덕정,제주특별자치도 제주시 관덕로 19,33.5133680610848,126.521474544312,삼도이동,22
92,관음사,제주특별자치도 제주시 산록북로 660,33.4217203735021,126.558750751081,아라일동,22
93,관음사군주둔지옛터,제주특별자치도 제주시 산록북로 660,33.4217203735021,126.558750751081,아라일동,52
94,관음사템플스테이,제주시 산록북로 660,33.4217203735021,126.558750751081,아라일동,22
95,광령귤나무,제주특별자치도 제주시 애월읍 광령8길 24-2,33.4590015625932,126.439036113159,애월읍 광령리,52
96,광치기해변,제주특별자치도 서귀포시 성산읍 섭지코지로 63,33.4370213964037,126.922403414639,성산읍 고성리,21
97,교래자연휴양림,제주특별자치도 제주시 조천읍 남조로 2023,33.4513645690599,126.656710998359,조천읍 교래리,22
98,구엄리돌염전,제주특별자치도 제주시 애월읍 애월해안로 708,33.4825790977601,126.377408940163,애월읍 구엄리,52
99,구엄포구,제주특별자치도 제주시 애월읍 구엄리,33.4790082734706,126.380395092464,애월읍 구엄리,52
100,구좌해안로,제주특별자치도 제주시 구좌읍 구좌해안로,33.5588536594122,126.726951776235,구좌읍,11
101,국립제주박물관,제주특별자치도 제주시 일주동로 17,33.5137967055663,126.547909557026,건입동,32
102,"군산(군산오름,코메오름)",제주특별자치도 서귀포시 안덕면 창천리 산 3-1,33.2515973888648,126.367481160108,안덕면 창천리,11
103,굴동포구,제주특별자치도 제주시 구좌읍 해맞이해안로,33.5323494390827,126.847656546382,구좌읍 하도리 ,52
104,굿다이버,제주특별자치도 서귀포시 중산간서로 41 (강정동),33.2610652424277,126.506051919799,강정동,42
105,궁대오름(궁대악),제주특별자치도 서귀포시 성산읍 금백조로 446,33.4405555582142,126.822048928836,성산읍 수산리,22
106,귀덕연대,제주특별자치도 제주시 한림읍 귀덕14길 14-5,33.4418366695746,126.293160783073,한림읍 귀덕리,52
107,귀빈사,제주특별자치도 제주시 구좌읍 비자림로 1456,33.4447365885176,126.759099253491,구좌읍 송당리,52
108,귤밭76번지,제주특별자치도 제주시 화북이동 5495-2,33.4932106218954,126.556236333795,화북이동,41
109,귤빛캠핑장,제주특별자치도 제주시 조천읍 함와로 428,33.5039255969304,126.673803228719,조천읍 대흘리,48
110,그대와함께라면,서귀포시 성산읍 환해장성로 929,33.43397591681,126.915622930933,성산읍 고성리,31
111,그랑블루요트투어,제주특별자치도 서귀포시 대포로 172-7 2층 그랑블루요트,33.2382603194251,126.439558497368,대포동,42
112,그랑블루호(선상낚시),제주특별자치도 서귀포시 남원읍 위미중앙로180번길 10,33.2746479566242,126.662524152012,남원읍 위미리,42
113,그레이그로브,제주특별자치도 서귀포시 안덕면 형제해안로 70,33.2258392129178,126.29981736589,안덕면 사계리,31
114,그루밍제주,제주특별자치도 서귀포시 천제연로 357,33.2525336200709,126.442779952795,회수동,45
115,그리스신화박물관/트릭아이미술관,제주특별자치도 제주시 한림읍 광산로 942,33.3480861338113,126.357521258907,한림읍 금악리,32
116,그림그리는펜션,제주도 서귀포시 성산읍 금백조로131번길 181,33.4312118880671,126.843807076302,성산읍 수산리,12
117,그제바람윈드서핑패들보드,제주특별자치도 제주시 선사로8길 13-4,33.5260342384826,126.586853052021,삼양일동,41
118,그초록,제주특별자치도 제주시 구좌읍 행원로7길 23-16,33.5563748895924,126.806400947611,구좌읍 행원리,31
119,금능석물원,제주특별자치도 제주시 한림읍 한림로 176,33.3846916474293,126.22673650527,한림읍 금능리,32
120,금능이큐스테이호텔,제주특별자치도 제주시 한림읍 금능남1길 6-1,33.3852626736103,126.229876590689,한림읍 금능리,12
121,금능이큐스테이호텔,제주특별자치도 제주시 한림읍 금능남1길 6-1,33.3852626736103,126.229876590689,한림읍 금능리,21
122,금능이큐스테이호텔,제주특별자치도 제주시 한림읍 금능남1길 6-1,33.3852626736103,126.229876590689,한림읍 금능리,45
123,금능이큐스테이호텔,제주특별자치도 제주시 한림읍 금능남1길 6-1,33.3852626736103,126.229876590689,한림읍 금능리,51
124,금능제면소,제주특별자치도 제주시 한림읍 금능길 47,33.3881779424926,126.228422224326,한림읍 금능리,31
125,금능제면소,제주특별자치도 제주시 한림읍 금능길 47,33.3881779424926,126.228422224326,한림읍 금능리,51
126,금능포구,제주특별자치도 제주시 한림읍 금능리,33.3750131625829,126.235818589994,한림읍 금능리,52
127,금능해수욕장,제주특별자치도 제주시 한림읍 금능길 119-10,33.3904006277236,126.236205125385,한림읍 금능리,42
128,금당목장ATV,제주특별자치도 서귀포시 안덕면 신화역사로685번길 13-16,33.3141463310042,126.358078748572,안덕면 동광리,41
129,금덕무환자나무및팽나무군락,제주특별자치도 제주시 애월읍 유수암리 1920,33.4417808952222,126.400640556971,애월읍 유수암리,52
130,금룡사,제주특별자치도 제주시 구좌읍 김녕로 148-11,33.5537748400439,126.753749090639,구좌읍 김녕리,32
131,금룡사템플스테이,제주특별자치도 제주시 구좌읍 김녕로 148-11,33.5537748400439,126.753749090639,구좌읍 김녕리,22
132,금성포구,제주특별자치도 제주시 애월읍 금성리 573-1,33.4468383951546,126.298192482405,애월읍 금성리,52
133,금악오름(왕매),제주특별자치도 제주시 한림읍 금악리 산 1-1,33.3556958434344,126.305586388283,한림읍 금악리,11
134,금요일의아침조금,제주특별자치도 제주시 가령골1길 12,33.5031408507448,126.537447677444,이도이동,51
135,기독교순례길1코스(순종의길),제주특별자치도 제주시 애월읍 금성하안길 3,33.4465346819647,126.302688575931,애월읍 금성리,11
136,기독교순례길2코스(순교의길),제주특별자치도 제주시 한림읍 협재8길 8,33.3947278253859,126.243006836797,한림읍 협재리,11
137,기독교순례길3코스(사명의길),제주특별자치도 제주시 한경면 조수3길 7,33.3369017424283,126.231058977858,한경면 조수리,11
138,기독교순례길4코스(화해의길),제주특별자치도 서귀포시 대정읍 추사로36번길 11,33.25096739362,126.279436673718,대정읍 안성리,11
139,김경숙해바라기농장,제주특별자치도 제주시 번영로 854-1,33.4774072478568,126.627592341467,회천동,22
140,김녕지질트레일,제주특별자치도 제주시 구좌읍 김녕로 209,33.555154006244,126.762752337789,구좌읍 김녕리,11
141,김녕청굴물,제주특별자치도 제주시 구좌읍 김녕리 1296,33.5579920949384,126.751295299024,구좌읍 김녕리,42
142,김녕금속공예벽화마을,제주특별자치도 제주시 구좌읍 김녕항3길 18-16,33.5579308133667,126.746507670964,구좌읍 김녕리,52
143,김녕사굴,제주특별자치도 제주시 구좌읍 덕천리 201-4,33.5010172496643,126.773651004143,구좌읍 덕천리,52
144,김녕요트투어,제주특별자치도 제주시 구좌읍 구좌해안로 229-16,33.5582479162063,126.7372597689,구좌읍 김녕리,42
145,김녕항,제주특별자치도 제주시 구좌읍 김녕항1길 50-13,33.5580451011431,126.740228156582,구좌읍 김녕리,21
146,김녕항,제주특별자치도 제주시 구좌읍 김녕항1길 50-13,33.5580451011431,126.740228156582,구좌읍 김녕리,52
147,김녕해수욕장,제주특별자치도 제주시 구좌읍 구좌해안로 237,33.5572081367731,126.736551213927,구좌읍 김녕리,42
148,김녕해수욕장야영장,제주특별자치도 제주시 구좌읍 해맞이해안로 7-6,33.5571072797716,126.759838589893,구좌읍 김녕리,42
149,김녕해안도로,제주특별자치도 제주시 구좌읍 김녕리,33.5501078240443,126.757835437154,구좌읍 김녕리,23
150,김만덕객주,제주특별자치도 제주시 임항로 68,33.5165771541236,126.532183623962,건입동,51
151,김만덕기념관,제주특별자치도 제주시 산지로 7,33.5158749758985,126.530391302407,건입동,32
152,김서프제주,제주특별자치도 서귀포시 색달로81번길 39,33.2616755063947,126.408081859337,색달동,42
153,김영갑갤러리두모악,제주특별자치도 서귀포시 성산읍 삼달로 137,33.372367631088,126.854245793009,성산읍 삼달리,32
154,김영수도서관,제주특별자치도 제주시 중앙로8길 18,33.5149928260172,126.521383690283,삼도이동,32
155,김택화미술관,제주특별자치도 제주시 조천읍 신흥로 1,33.5437574710787,126.653178598011,조천읍 신흥리,32
156,김한미술관&카페3206,제주특별자치도 제주시 한림읍 한상로 115,33.409043091002,126.287168242607,한림읍 상대리,32
157,깅코,제주특별자치도 제주시 도령로 100,33.4908411423964,126.488604104674,연동,31
158,까끄래기오름,제주시 조천읍 교래리 128,33.4307503132135,126.702762563316,조천읍 교래리,22
159,꼬라지오,제주특별자치도 서귀포시 일주동로 8777,33.2525201710352,126.550726655005,서홍동,31
160,꽃썸,제주특별자치도 서귀포시 안덕면 동광로 151,33.3097350065685,126.34015745353,안덕면 동광리,23
161,꿈바당어린이도서관,제주특별자치도 제주시 연오로 140,33.4805911262,126.499739636183,연동,32
162,꿈바당어린이도서관,제주특별자치도 제주시 연오로 140,33.4805911262,126.499739636183,연동,52
163,나무식탁,제주특별자치도 서귀포시 대정읍 도원로 214,33.2780709413505,126.19160126931,대정읍 신도리,31
164,나바론절벽,제주특별자치도 제주시 추자면 영흥리 산 19,33.9564400554597,126.293961476379,추자면 영흥리,21
165,낙선동4.3성,제주특별자치도 제주시 조천읍 선흘서5길 13,33.5148828321988,126.694502811185,조천읍 선흘리,52
166,낙천리아홉굿의자마을,제주시 한경면 낙수로 97,33.3279027400347,126.226254961964,한경면 낙천리,23
167,낙천리아홉굿의자마을,제주시 한경면 낙수로 97,33.3279027400347,126.226254961964,한경면 낙천리,41
168,낙천아홉굿마을의자공원,제주특별자치도 제주시 한경면 낙수로 97,33.3279027400347,126.226254961964,한경면 낙천리,22
169,낙타트래킹,제주특별자치도 서귀포시 표선면 번영로 2564-21,33.4026984441641,126.778645672817,표선면 성읍리,48
170,난드르바당,제주특별자치도 서귀포시 하예하동로16번길 11-1,33.2346304868714,126.371011234527,하예동,31
171,난산리다방,제주특별자치도 서귀포시 성산읍 난산로41번길 39-2,33.3989434701253,126.867902004261,성산읍 난산리,31
172,난산리다방,제주특별자치도 서귀포시 성산읍 난산로41번길 39-2,33.3989434701253,126.867902004261,성산읍 난산리,51
173,남내소,제주특별자치도 서귀포시 남원읍 하례로,33.2835683964012,126.620735246469,남원읍 하례리 ,22
174,남두연대,제주특별자치도 제주시 애월읍 신엄리 2780-1,33.4792175322541,126.358456899179,애월읍 신엄리,52
175,남문지못,제주특별자치도 서귀포시 대정읍 인성리 392,33.2465675729904,126.276339149262,대정읍 인성리,52
176,남수각하늘길벽화거리,제주특별자치도 제주시 중앙로13길 32,33.5114273748068,126.527744188208,일도일동,21
177,남원위미2리어촌계,제주특별자치도 서귀포시 남원읍 태위로 208,33.2748389782384,126.669390518687,남원읍 위미리,21
178,남원큰엉해변,제주특별자치도 서귀포시 남원읍 태위로 522-17,33.2733498193692,126.703711977934,남원읍 남원리,21
179,남원항(남원포구),제주특별자치도 서귀포시 남원읍 남태해안로 140,33.2778173019586,126.719604623129,남원읍 남원리,21
180,남원항(남원포구),제주특별자치도 서귀포시 남원읍 남태해안로 140,33.2778173019586,126.719604623129,남원읍 남원리,52
181,납읍난대림금산공원,제주특별자치도 제주시 애월읍 납읍리 1457-1,33.4340736545144,126.331385973796,애월읍 납읍리,11
182,내창트레킹,제주특별자치도 서귀포시 남원읍 하례중앙로 95,33.269169761325,126.625351256955,남원읍 하례리,11
183,너는파라다이스길리,제주특별자치도 제주시 구좌읍 월정1길 65,33.5566857152795,126.793701539594,구좌읍 월정리,31
184,너도나도ATV,제주특별자치도 제주시 조천읍 비자림로 1053,33.434720161187,126.717209519283,조천읍 교래리,23
185,너도나도ATV,제주특별자치도 제주시 조천읍 비자림로 1053,33.434720161187,126.717209519283,조천읍 교래리,41
186,너븐숭이4.3기념관,제주특별자치도 제주시 조천읍 북촌3길 3,33.5460149487699,126.688656387157,조천읍 북촌리,52
187,넌걸어난탈래,제주특별자치도 제주시 우도면 2395-5,33.5093234634825,126.943678244463,우도면 연평리,43
188,넥슨컴퓨터박물관,제주특별자치도 제주시 1100로 3198-8,33.4721199545726,126.485799750022,노형동,32
189,노루생태관찰원,제주특별자치도 제주시 명림로 520,33.4443239221222,126.6266892746,봉개동,21
190,노루생태관찰원,제주특별자치도 제주시 명림로 520,33.4443239221222,126.6266892746,봉개동,41
191,노리매공원,제주특별자치도 서귀포시 대정읍 중산간서로 2260-15,33.2825441646059,126.287343832589,대정읍 구억리,21
192,노을승마장,제주특별자치도 제주시 우도면 우도해안길 406-1,33.5129498526641,126.946441297344,우도면 연평리,45
193,노을해안1014,제주특별자치도 제주시 한경면 노을해안로 1014,33.297677190916,126.168559012143,한경면 고산리,41
194,노을해안로,제주특별자치도 서귀포시 대정읍 노을해안로 24,33.2425116416086,126.224396456812,대정읍 일과리,11
195,노형수퍼마켙,제주특별자치도 제주시 노형로 89,33.4649423421818,126.455168486651,해안동,32
196,녹산로유채꽃길,제주특별자치도 서귀포시 표선면 가시리 산 87-15,33.3984052242241,126.719921380523,표선면 가시리,21
197,논짓물,제주특별자치도 서귀포시 하예동,33.2412109273802,126.378717518735,하예동,22
198,놀멍쉬멍고르멍(애견카페),제주특별자치도 서귀포시 현청로 51,33.2657384879915,126.555920480286,서홍동,31
199,놀자개,제주특별자치도 제주시 오광로 143,33.4838256297963,126.462120331417,노형동,45
200,농개,제주특별자치도 서귀포시 성산읍 환해장성로111번길 4,33.3818096029132,126.880035124301,성산읍 신산리,22
201,높은오름,제주특별자치도 제주시 구좌읍 송당리 산 213-1,33.4573241976962,126.792603695849,구좌읍 송당리,22
202,누바비치,제주특별자치도 서귀포시 대포로 148-15,33.236914817749,126.436742538765,대포동,31
203,누운오름(한림읍),제주특별자치도 제주시 한림읍 금악리 188-2,33.3639244772624,126.324099025531,한림읍 금악리,11
204,누웨마루거리(구바오젠),제주특별자치도 제주시 신광로 47,33.4877543819398,126.490293916618,연동,22
205,눈물의십자가,제주 제주시 추자면,33.9637161687124,126.296120635115,추자면,52
206,느지리오름(망오름),제주특별자치도 제주시 한림읍 상명리 산 5,33.3653383204335,126.261645705219,한림읍 상명리,11
207,니모메빈티지라운지,제주특별자치도 제주시 일주서로 7335-8,33.4937242247573,126.430941515551,외도이동,31
208,니모스토리,제주특별자치도 제주시 구좌읍 김녕로17길 33-1,33.5582537895948,126.75398384905,구좌읍 김녕리,42
209,다끄네포구(용담포구),제주특별자치도 제주시 용담3동,33.5176026138478,126.492845368496,용담삼동,52
210,다니쉬,제주특별자치도 제주시 조천읍 함덕16길 56,33.5421281501169,126.663683484297,조천읍 함덕리,31
211,다랑쉬굴,제주특별자치도 제주시 구좌읍 세화리 2608-6,33.4697053269171,126.831815306839,구좌읍 세화리,52
212,다랑쉬마을,제주특별자치도 제주시 구좌읍 다랑쉬로 406-25,33.4705149213903,126.823416596935,구좌읍 세화리,52
213,다랑쉬오름(월랑봉),제주특별자치도 제주시 구좌읍 세화리 2705,33.4750169662769,126.826518297601,구좌읍 세화리,11
214,다려도,제주특별자치도 제주시 조천읍 북촌리,33.5432218830703,126.690806655902,조천읍 북촌리,21
215,다이나믹메이즈,제주특별자치도 서귀포시 표선면 번영로 2644,33.3991114773805,126.784705796572,표선면 성읍리,32
216,다이브맵,제주특별자치도 서귀포시 서호중앙로 55,33.2525493248565,126.518614403836,서호동,48
217,단산(바굼지오름),제주특별자치도 서귀포시 안덕면 향교로 165-23,33.2399359491313,126.289619313456,안덕면 사계리,21
218,단산과방사탑,제주특별자치도 제주시 조천읍 신흥로1길 25,33.5474206687694,126.650464780183,조천읍 신흥리,52
219,달이뜨는식탁,제주특별자치도 제주시 구좌읍 월정1길 14,33.5531562333126,126.790793251853,구좌읍 월정리,31
220,달중이네펫호텔,제주특별자치도 제주시 정존15길 20,33.4869264812213,126.477613642556,노형동,12
221,달중이네펫호텔,제주특별자치도 제주시 정존15길 20,33.4869264812213,126.477613642556,노형동,21
222,달중이네펫호텔,제주특별자치도 제주시 정존15길 20,33.4869264812213,126.477613642556,노형동,45
223,달중이네펫호텔,제주특별자치도 제주시 정존15길 20,33.4869264812213,126.477613642556,노형동,51
224,닭머르해안길,제주특별자치도 제주시 조천읍 신촌북3길 62-1,33.5378165657626,126.613255991755,조천읍 신촌리,11
225,답다니탑망대(하트원담),제주특별자치도 제주시 우도면 연평리 798,33.5245908506294,126.952559341545,우도면 연평리,21
226,"당산봉(당오름,차귀오름)",제주특별자치도 제주시 한경면 고산리 산 15,33.307492925113,126.172147428337,한경면 고산리,11
227,당오름,제주특별자치도 제주시 구좌읍 송당리 산 199-1,33.4660868077143,126.776907427325,구좌읍 송당리,12
228,당오름(안덕면),제주특별자치도 서귀포시 안덕면 동광리 산 68-1,33.333250368739,126.335999672877,안덕면 동광리,11
229,당오름(한경면),제주특별자치도 제주시 한경면 용수리 산 18,33.3082689284321,126.173556061132,한경면 용수리,11
230,당케산물(당케포구),제주특별자치도 서귀포시 표선면 표선당포로,33.3257853298781,126.844133225419,표선면 표선리 ,52
231,당포로나인돈카츠,제주특별자치도 서귀포시 표선면 표선당포로 9,33.3257597440874,126.84357564147,표선면 표선리,31
232,대림리선돌,제주특별자치도 제주시 한림읍 대림리,33.4223731053321,126.27757210323,한림읍 대림리,52
233,"대수산봉(큰물뫼,물미오름)",제주특별자치도 서귀포시 성산읍 고성리 2039-1,33.4356913008759,126.903356459778,성산읍 고성리,12
234,"대수산봉(큰물뫼,물미오름)",제주특별자치도 서귀포시 성산읍 고성리 2039-1,33.4356913008759,126.903356459778,성산읍 고성리,22
235,대수포구,제주특별자치도 제주시 한림읍 수원리 1027-7,33.4269756469936,126.270506819317,한림읍 수원리,52
236,"대왕산(왕뫼,왕메,왕미)",제주특별자치도 서귀포시 성산읍 수산리 1429,33.4574878460964,126.872086053399,성산읍 수산리,22
237,대유ATV수렵사격랜드,제주특별자치도 서귀포시 상예로 381,33.2789781872262,126.394229926837,상예동,32
238,대유ATV수렵사격랜드,제주특별자치도 서귀포시 상예로 381,33.2789781872262,126.394229926837,상예동,41
239,대장금촬영지(제주민속촌),제주특별자치도 서귀포시 표선면 민속해안로 631-34,33.3212871409308,126.843088213207,표선면 표선리,23
240,대정면4.3사건위령비,제주특별자치도 서귀포시 대정읍 동일하모로 158-3,33.2254139389597,126.248439510331,대정읍 하모리,52
241,대정해변(하모해변),제주특별자치도 서귀포시 대정읍 하모리,33.2226190237996,126.25393653271,대정읍 하모리,22
242,대정향교,제주특별자치도 서귀포시 안덕면 향교로 165-17,33.2392901258219,126.288484123083,안덕면 사계리,52
243,대정현역사자료전시관,제주특별자치도 서귀포시 대정읍 상모대서로 17,33.2251714651966,126.256266012701,대정읍 상모리,32
244,대평포구,제주 서귀포시 안덕면 창천리 914-5,33.2364936102624,126.362020302252,안덕면 창천리,53
245,대포포구,제주특별자치도 서귀포시 대포로,33.2419341340771,126.432274151534,대포동 ,52
246,대한민국최남단기념비/마라도기념비,제주특별자치도 서귀포시 대정읍 마라로 131,33.1141134094908,126.268438222589,대정읍 가파리,22
247,댕금님표수제간식,제주특별자치도 제주시 인다4길 41-12,33.4708187739592,126.549890154975,아라일동,45
248,댕댕놀이터,제주특별자치도 제주시 도근내길 56,33.4919083945154,126.436934478496,내도동,45
249,댕댕샤워,제주특별자치도 제주시 애월읍 하귀9길 54-8,33.4827898550426,126.414757757855,애월읍 하귀1리,45
250,댕댕스위트,제주특별자치도 제주시 애월읍 하귀9길 2,33.4864182898895,126.414565502113,애월읍 하귀1리,45
251,더플래닛(THEPLANET),제주특별자치도 서귀포시 색달동 2558,33.2552163144993,126.412973397305,색달동,22
252,더플래닛(THEPLANET),제주특별자치도 서귀포시 색달동 2558,33.2552163144993,126.412973397305,색달동,32
253,더플래닛(THEPLANET),제주특별자치도 서귀포시 색달동 2558,33.2552163144993,126.412973397305,색달동,41
254,"더럭초등학교(구,더럭분교)",제주특별자치도 제주시 애월읍 하가로 195,33.4535949380337,126.345171297868,애월읍 하가리,21
255,더리트리브,제주특별자치도 서귀포시 안덕면 화순로 67,33.2479296506382,126.338563565616,안덕면 화순리,31
256,더마카트,제주특별자치도 제주시 한림읍 월림7길 155,33.355543077302,126.241505122029,한림읍 월림리,41
257,더마파크,제주특별자치도 제주시 한림읍 월림7길 155,33.355543077302,126.241505122029,한림읍 월림리,41
258,더칠린,제주특별자치도 제주시 애월읍 애월로 84,33.4641611720064,126.3164594899,애월읍 애월리,12
259,더칠린,제주특별자치도 제주시 애월읍 애월로 84,33.4641611720064,126.3164594899,애월읍 애월리,21
260,더칠린,제주특별자치도 제주시 애월읍 애월로 84,33.4641611720064,126.3164594899,애월읍 애월리,45
261,더칠린,제주특별자치도 제주시 애월읍 애월로 84,33.4641611720064,126.3164594899,애월읍 애월리,51
262,더펫츠,제주특별자치도 제주시 1100로 3124,33.4653699091942,126.485303257031,노형동,31
263,덕천곤충영농조합,제주특별자치도 제주시 구좌읍 중산간동로 1875,33.4829324263091,126.748300675997,구좌읍 덕천리,45
264,뎁스원프리다이빙센터,제주특별자치도 제주시 한림읍 한림로 375,33.3962352319481,126.243264843908,한림읍 협재리,43
265,도곤도곤애견미용실,제주특별자치도 제주시 성신로1길 21,33.4918458328401,126.48769873077,연동,45
266,도그앤캣,제주특별자치도 서귀포시 홍중로 119-2 601동 107호,33.2631200520785,126.555208973226,서홍동,45
267,도도펫,제주특별자치도 제주시 우령8길 63-16,33.4853520427203,126.428231371499,외도일동,45
268,도두동무지개해안도로,제주특별자치도 제주시 도두1동,33.5010079784134,126.474247107518,도두일동,21
269,도두봉,제주특별자치도 제주시 도두동 산 1,33.5085344192839,126.469041395771,도두일동,22
270,도두항,제주특별자치도 제주시 도공로 2,33.5061275684763,126.464982376238,도두일동,22
271,도두해안도로,제주특별자치도 제주시 도두2동 706-3,33.510401625438,126.482338576502,도두이동,23
272,도두해안도로,제주특별자치도 제주시 도두2동 706-3,33.510401625438,126.482338576502,도두이동,42
273,도령모루,제주특별자치도 제주시 용담이동 1760-1,33.4889179032603,126.498229141199,용담이동,52
274,도리미오름,제주특별자치도 제주시 구좌읍 송당리 산 255-1,33.4286615961813,126.7665020271,구좌읍 송당리,12
275,도리미오름,제주특별자치도 제주시 구좌읍 송당리 산 255-1,33.4286615961813,126.7665020271,구좌읍 송당리,22
276,도순다원,제주특별자치도 서귀포시 중산간서로356번길 152-41,33.2723952821011,126.48289065585,도순동,21
277,도시해녀,제주특별자치도 제주시 애월읍 하귀미수포길 16-1,33.4842537470554,126.402548064087,애월읍 하귀2리,45
278,도을,제주특별자치도 제주시 조천읍 남조로 2343,33.473557695312,126.657125815614,조천읍 와흘리,31
279,도치돌알파카목장,제주특별자치도 제주시 애월읍 도치돌길 293,33.4099506881118,126.36573023443,애월읍 납읍리,22
280,독자봉,제주특별자치도 서귀포시 성산읍 신산리 1785,33.3878622175382,126.854291951602,성산읍 신산리,12
281,독자봉,제주특별자치도 서귀포시 성산읍 신산리 1785,33.3878622175382,126.854291951602,성산읍 신산리,22
282,돈내코,제주특별자치도 서귀포시 516로 (상효동),33.3250814262979,126.598850400937,돈내코로,42
283,돈내코유원지,제주특별자치도 서귀포시 돈내코로 120,33.3001329579601,126.584438002767,상효동,42
284,돈대산,제주특별자치도 제주시 추자면 예초리 산 67-1,33.9496468721354,126.321810412595,추자면 예초리,12
285,돈대산산림휴양산책로,제주특별자치도 제주시 추자면 예초리 산 67-1,33.9496468721354,126.321810412595,추자면 예초리,11
286,돈블링65,제주특별자치도 제주시 도리로 65 (이호일동),33.4997405369333,126.458775736508,이호일동,31
287,돈블링65,제주특별자치도 제주시 도리로 65 (이호일동),33.4997405369333,126.458775736508,이호일동,51
288,돈파스타정원,제주특별자치도 제주시 애월읍 애월해안로 364,33.4727924178582,126.347444688528,애월읍 고내리,31
289,돌고래하우스(캠핑장),제주특별자치도 서귀포시 이어도로 826-58,33.232728452393,126.499469847941,강정동,48
290,돌담넘는고양이,제주특별자치도 제주시 구좌읍 해맞이해안로 2478,33.4859856462739,126.901797371158,구좌읍 종달리,31
291,돔박이오름(동박악),제주특별자치도 서귀포시 안덕면 광평리 산 89,33.3394980583853,126.364068816074,안덕면 광평리,13
292,돔베낭골,제주특별자치도 서귀포시 호근동,33.2615116284173,126.532760043118,호근동,22
293,돔베낭길,제주특별자치도 서귀포시 태평로92번길 49,33.2401695155881,126.531842818277,호근동,11
294,동거문이오름,제주특별자치도 제주시 구좌읍 종달리 산 70,33.4487790613853,126.805366371702,구좌읍 종달리,11
295,동계정온유허비,제주특별자치도 서귀포시 대정읍 안성리,33.2605831235057,126.285710783126,대정읍 안성리,52
296,동귀방파제,제주특별자치도 제주시 애월읍 하귀리,33.4821200691313,126.414415062165,애월읍 하귀1리,21
297,동명정류장,제주특별자치도 제주시 한림읍 동명7길 26,33.3971391702685,126.266234171576,한림읍 동명리,31
298,동백동산,제주특별자치도 제주시 조천읍 선흘리 산 12,33.5166343200874,126.717031226683,조천읍 선흘리,11
299,동백포레스트,서귀포시 남원읍 신례리 1767,33.3003449035082,126.636216133758,남원읍 신례리,21
300,동복환해장성,제주특별자치도 제주시 구좌읍 동복리,33.5363208095004,126.720265726735,구좌읍 동복리,52
301,동산농원딸기체험장,제주특별자치도 제주시 한경면 저지리 1448-2,33.333590023073,126.245959740199,한경면 저지리,41
302,동알오름,제주특별자치도 서귀포시 대정읍 상모리 153,33.2071849479858,126.288822178559,대정읍 상모리,11
303,동일리포구,제주특별자치도 서귀포시 대정읍 동일리,33.2440333565421,126.246630064234,대정읍 동일리,52
304,돛오름,제주특별자치도 제주시 구좌읍 송당리 산 3,33.4803723838213,126.799764984057,구좌읍 송당리,11
305,돼지굽는정원,제주특별자치도 제주시 한림읍 협재2길 8-7,33.391868133042,126.241082382776,한림읍 협재리,31
306,돼지굽는정원,제주특별자치도 제주시 한림읍 협재2길 8-7,33.391868133042,126.241082382776,한림읍 협재리,51
307,두맹이골목,제주특별자치도 제주시 동문로16길 17-4,33.5120157312442,126.534911730787,일도이동,11
308,두산봉(말미오름),제주특별자치도 서귀포시 성산읍 시흥리 2661,33.4769199799302,126.88726677294,성산읍 시흥리,13
309,둔지봉,제주특별자치도 제주시 구좌읍 한동리 산 40,33.502866924037,126.796490636361,구좌읍 한동리,11
310,뒤굽은이오름,제주특별자치도 서귀포시 성산읍 수산리 4504,33.4304240917415,126.827047940447,성산읍 수산리,12
311,뒹굴개,제주특별자치도 제주시 삼무로 74,33.4895747440976,126.494465524794,연동,31
312,뒹굴개,제주특별자치도 제주시 삼무로 74,33.4895747440976,126.494465524794,연동,45
313,뒹굴개,제주특별자치도 제주시 삼무로 74,33.4895747440976,126.494465524794,연동,51
314,드르쿰다ATVIN상효,제주특별자치도 서귀포시 516로 619,33.3035235485654,126.598518128078,상효동,41
315,드르쿰다인성산,제주특별자치도 서귀포시 성산읍 섭지코지로25번길 64,33.4445123990912,126.919085883511,성산읍 고성리,21
316,들렁모루산책길,제주특별자치도 서귀포시 서홍동 2437,33.2824442057229,126.542648054634,서홍동,11
317,등머을레져,제주특별자치도 제주시 우도면 우도해안길 70,33.4928045322592,126.951541390313,우도면 연평리,42
318,디스커버제주,제주특별자치도 서귀포시 대포로 26,33.2474115732157,126.431481282234,대포동,48
319,디어마이프렌즈,제주특별자치도 제주시 한경면 청수로 14,33.3203974600045,126.245289195116,한경면 청수리,12
320,디어마이프렌즈,제주특별자치도 제주시 한경면 청수로 14,33.3203974600045,126.245289195116,한경면 청수리,21
321,디어마이프렌즈,제주특별자치도 제주시 한경면 청수로 14,33.3203974600045,126.245289195116,한경면 청수리,45
322,디어마이프렌즈,제주특별자치도 제주시 한경면 청수로 14,33.3203974600045,126.245289195116,한경면 청수리,51
323,디어펫,제주특별자치도 제주시 과원로 47,33.4765201655973,126.488322680484,연동,45
324,디퍼프리다이브,제주특별자치도 서귀포시 칠십리로 157,33.2450817569576,126.569967763931,서귀동,42
325,따라비오름,제주특별자치도 서귀포시 표선면 가시리 산 62,33.3860381518026,126.750266535353,표선면 가시리,11
326,떠오르길,제주특별자치도 제주시 구좌읍 김녕로1길 51-3,33.5578515185402,126.748874557156,구좌읍 김녕리,21
327,라니멜레,제주특별자치도 제주시 조천읍 조천우회로 527,33.5313985935189,126.665492506164,조천읍 함덕리,45
328,라신동,제주특별자치도 제주시 한림읍 귀덕리,33.4336173461268,126.290632160027,한림읍 귀덕리,52
329,라온골프클럽,제주특별자치도 제주시 한경면 용금로 998,33.3446191070975,126.278270296289,한경면 저지리,48
330,라온승마클럽,제주특별자치도 제주시 한림읍 월림7길 155,33.355543077302,126.241505122029,한림읍 월림리,45
331,라온주실내체험동물원,제주특별자치도 제주시 한림읍 월림7길 155,33.355543077302,126.241505122029,한림읍 월림리,32
332,라이더스랩,제주특별자치도 서귀포시 성산읍 중산간동로 4328-77 (삼달리) 라이더스랩,33.3915126037569,126.830243215623,성산읍 삼달리,45
333,라이프동물병원,제주특별자치도 제주시 노형3길 21-1,33.482647851591,126.476003479149,노형동,12
334,라이프동물병원,제주특별자치도 제주시 노형3길 21-1,33.482647851591,126.476003479149,노형동,21
335,라이프동물병원,제주특별자치도 제주시 노형3길 21-1,33.482647851591,126.476003479149,노형동,45
336,라이프동물병원,제주특별자치도 제주시 노형3길 21-1,33.482647851591,126.476003479149,노형동,51
337,라인업서프하도,제주특별자치도 제주시 구좌읍 하도13길 55,33.5108440210442,126.892122004584,구좌읍 하도리,42
338,라임오렌지빌,제주특별자치도 서귀포시 칠십리로 332,33.2461843537704,126.587236147367,토평동,12
339,라임오렌지카페앤플라워,제주특별자치도 서귀포시 칠십리로 330,33.2464159215517,126.587108977194,토평동,31
340,라임오렌지카페앤플라워,제주특별자치도 서귀포시 칠십리로 330,33.2464159215517,126.587108977194,토평동,51
341,라트반,제주특별자치도 제주시 구좌읍 해맞이해안로 1606,33.5290792435414,126.874764525432,구좌읍 하도리,31
342,러블리독스,제주특별자치도 제주시 연북로 668,33.4923800450867,126.548293560355,이도이동,31
343,런닝맨,제주특별자치도 서귀포시 중문관광로 42,33.2549005523668,126.40977029065,색달동,45
344,레더한,제주특별자치도 서귀포시 남원읍 태위로 773-19,33.2837364846801,126.727660766666,남원읍 태흥리,46
345,레이저서바이벌M,제주특별자치도 제주시 신광로 58 4층,33.4870798836126,126.489654426738,연동,41
346,레이지펌프,제주특별자치도 제주시 애월읍 애월북서길 32,33.466267134706,126.309553095967,애월읍 애월리,31
347,레프트핸더게스트하우스,제주특별자치도 제주시 구좌읍 상도북2길 17-12,33.5201877720308,126.864996397348,구좌읍 상도리,12
348,렛츠런파크,제주특별자치도 제주시 애월읍 평화로 2144,33.4098413045129,126.393124328757,애월읍 유수암리,43
349,렛츠런팜양귀비꽃,제주특별자치도 제주시 조천읍 남조로 1649-48,33.410330333335,126.675893703064,조천읍 교래리,13
350,렛츠런팜양귀비꽃,제주특별자치도 제주시 조천읍 남조로 1649-48,33.410330333335,126.675893703064,조천읍 교래리,22
351,렛츠런팜양귀비꽃,제주특별자치도 제주시 조천읍 남조로 1649-48,33.410330333335,126.675893703064,조천읍 교래리,32
352,렛츠런팜양귀비꽃,제주특별자치도 제주시 조천읍 남조로 1649-48,33.410330333335,126.675893703064,조천읍 교래리,43
353,렛츠런팜제주,제주특별자치도 제주시 조천읍 남조로 1660,33.418944361171,126.681160939844,조천읍 교래리,32
354,로로요가,제주특별자치도 제주시 구좌읍 김녕로17길 33-1 (김녕리),33.5582537895948,126.75398384905,구좌읍 김녕리,22
355,로빙화,제주특별자치도 서귀포시 남원읍 남태해안로 13,33.2751185756874,126.709259627731,남원읍 남원리,31
356,루나폴,제주특별자치도 서귀포시 안덕면 일주서로 1836 루나폴,33.2541297973366,126.32228743307,안덕면 덕수리,52
357,루씨쏜아뜰리에,제주특별자치도 서귀포시 보목로64번길 138 (보목동) 보목로 64번길 138 1층,33.2412875785041,126.593033796075,보목동,11
358,르카페하도,제주특별자치도 제주시 구좌읍 해맞이해안로 2030-8,33.5090742304835,126.899587749224,구좌읍 종달리,31
359,르카페하도,제주특별자치도 제주시 구좌읍 해맞이해안로 2030-8,33.5090742304835,126.899587749224,구좌읍 종달리,51
360,리빙스톤펜션,제주특별자치도 서귀포시 법환로58번길 37,33.2418395753588,126.510201005436,법환동,12
361,리치망고,제주특별자치도 제주시 애월읍 애월해안로 272,33.4685292780823,126.340190598564,애월읍 고내리,31
362,리틀화이트,제주특별자치도 서귀포시 예래해안로 179-19,33.235995135856,126.383428152126,하예동,12
363,리틀화이트,제주특별자치도 서귀포시 예래해안로 179-19,33.235995135856,126.383428152126,하예동,21
364,리틀화이트,제주특별자치도 서귀포시 예래해안로 179-19,33.235995135856,126.383428152126,하예동,45
365,리틀화이트,제주특별자치도 서귀포시 예래해안로 179-19,33.235995135856,126.383428152126,하예동,51
366,마녀의언덕,제주특별자치도 서귀포시 예래해안로 205,33.2340284062731,126.38446150444,하예동,31
367,마녀의언덕펜션,제주특별자치도 서귀포시 예래해안로 207,33.2342025159359,126.38440814292,하예동,12
368,마노르블랑,서귀포시 안덕면 일주서로2100번길 46,33.2548236387556,126.294986562216,안덕면 덕수리,31
369,마라도섬투어,제주특별자치도 서귀포시 대정읍 마라로 65,33.118035844319,126.266318847137,대정읍 가파리,21
370,마라도(마라해양도립공원),제주특별자치도 서귀포시 대정읍 마라로101번길 46,33.1186178022129,126.267092741572,대정읍 가파리,22
371,마라도기원정사,제주특별자치도 서귀포시 대정읍 마라로 87,33.116079973932,126.266677213973,대정읍 가파리,52
372,마라도등대,제주특별자치도 서귀포시 대정읍 가파리 642,33.1170555316969,126.269485375902,대정읍 가파리,21
373,마라도성당,제주특별자치도 서귀포시 대정읍 마라로 153,33.1157455803173,126.269121008422,대정읍 가파리,22
374,마레카펜션,제주특별자치도 제주시 한림읍 금능1길 26,33.3881274213932,126.224886757258,한림읍 금능리,12
375,마방목지,제주특별자치도 제주시 516로 2480,33.4276387291002,126.603594630682,용강동,21
376,마방목지,제주특별자치도 제주시 516로 2480,33.4276387291002,126.603594630682,용강동,52
377,마복이오름,제주특별자치도 서귀포시 안덕면 상천리 산 83,33.3195212481565,126.391192432868,안덕면 상천리,11
378,마오름(한경),제주특별자치도 제주시 한경면 저지리 산 56,33.3380749000252,126.243716116263,한경면 저지리,11
379,마원,제주특별자치도 제주시 조천읍 선흘리 2107-2,33.4907350762947,126.700241493348,조천읍 선흘리,43
380,마음에온,제주특별자치도 제주시 칠성로길 29-1,33.5145793833966,126.525962848972,일도일동,51
381,마이애미함독카페,제주특별자치도 제주시 조천읍 남조로 3069,33.5331406300706,126.642413657357,조천읍 조천리,45
382,마흐니숲길,제주특별자치도 서귀포시 남원읍 남조로 973,33.3591180489091,126.692052896352,남원읍 수망리,22
383,막숙,제주특별자치도 서귀포시 막숙포로37번길 2,33.2378661939026,126.515729529982,법환동,22
384,만벵듸공동장지,제주특별자치도 제주시 한림읍 갯거리오름길 112,33.3721357859986,126.295542251252,한림읍 금악리,52
385,만복흑돼지,제주특별자치도 서귀포시 안덕면 산방로 55,33.2432505385043,126.326769108902,안덕면 화순리,31
386,만장굴,제주특별자치도 제주시 구좌읍 만장굴길 182,33.5283774190136,126.771615754394,구좌읍 월정리,21
387,말이,제주특별자치도 제주시 구좌읍 세화1길 40,33.5266558354228,126.855552277946,구좌읍 세화리,31
388,말이,제주특별자치도 제주시 구좌읍 세화1길 40,33.5266558354228,126.855552277946,구좌읍 세화리,51
389,맛있는철학자(태반의땅제주),제주특별자치도 서귀포시 토평로50번길 31,33.2675495774921,126.59031959527,토평동,22
390,맛있는철학자(태반의땅제주),제주특별자치도 서귀포시 토평로50번길 31,33.2675495774921,126.59031959527,토평동,41
391,망장포,제주특별자치도 서귀포시 남원읍 하례망장포로 65-13,33.25975689827,126.6395296858,남원읍 하례리,13
392,망장포,제주특별자치도 서귀포시 남원읍 하례망장포로 65-13,33.25975689827,126.6395296858,남원읍 하례리,22
393,매오름,제주특별자치도 서귀포시 표선면 표선리 산 2,33.3184736816392,126.813882760734,표선면 표선리,22
394,맬튼개갯담,제주특별자치도 제주시 구좌읍 구좌로 142,33.5207482180534,126.865587019925,구좌읍 하도리,22
395,머체왓숲길,제주특별자치도 서귀포시 남원읍 서성로 755,33.3305225860707,126.673899820322,남원읍 한남리,11
396,머체왓숲길,제주특별자치도 서귀포시 남원읍 서성로 755,33.3305225860707,126.673899820322,남원읍 한남리,23
397,멍더랜드,제주특별자치도 제주시 월광로 147,33.4921394187444,126.473423730892,노형동,45
398,멍멍플레이스,제주특별자치도 제주시 애월읍 소길남길 244-5,33.4162696284449,126.379461132594,애월읍 소길리,31
399,메리앤폴,제주시 한림읍 일주서로 5872,33.443453163872,126.293516116751,한림읍 귀덕리,31
400,메이즈랜드,제주특별자치도 제주시 구좌읍 비자림로 2134-47,33.4891471622224,126.801223039785,구좌읍 평대리,21
401,메이즈랜드,제주특별자치도 제주시 구좌읍 비자림로 2134-47,33.4891471622224,126.801223039785,구좌읍 평대리,32
402,명리동식당구좌직영점,제주특별자치도 제주시 구좌읍 일주동로 3010-17,33.5274794236088,126.843296849284,구좌읍 평대리,31
403,명리동식당구좌직영점,제주특별자치도 제주시 구좌읍 일주동로 3010-17,33.5274794236088,126.843296849284,구좌읍 평대리,51
404,명상가의집,제주특별자치도 제주시 조천읍 중산간동로 1513,33.4940920396572,126.716105430369,조천읍 선흘리,12
405,명월국민학교,제주특별자치도 제주시 한림읍 명월로 48,33.3889031451126,126.264848690587,한림읍 명월리,31
406,명월성지,제주특별자치도 제주시 한림읍 명월리 2236,33.4007557543412,126.260393912915,한림읍 명월리,52
407,명월팽나무군락,제주특별자치도 제주시 한림읍 명월로 71,33.3870002233238,126.266642965736,한림읍 명월리,52
408,모구리오름,제주특별자치도 서귀포시 성산읍 서성일로 260,33.4066281682593,126.822158983854,성산읍 난산리,11
409,모라이,제주특별자치도 서귀포시 산록남로 (색달동),33.290605588942,126.460841656834,색달동 ,11
410,모몽더티하우스,제주특별자치도 제주시 한경면 신한로 10,33.3497613432456,126.184051499069,한경면 신창리,31
411,모몽더티하우스,제주특별자치도 제주시 한경면 신한로 10,33.3497613432456,126.184051499069,한경면 신창리,51
412,모비딕다이브,제주특별자치도 서귀포시 남성중로121번길 12,33.2427638447393,126.555503409673,서홍동,43
413,모슬봉(모슬개오름),제주특별자치도 서귀포시 대정읍 상모리 3540-2,33.2387401367636,126.258657261788,대정읍 상모리,12
414,모슬봉(모슬개오름),제주특별자치도 서귀포시 대정읍 상모리 3540-2,33.2387401367636,126.258657261788,대정읍 상모리,22
415,모슬포항,제주특별자치도 서귀포시 대정읍 신영로36번길 48,33.2190593080686,126.24841489851,대정읍 하모리,23
416,모슬포항,제주특별자치도 서귀포시 대정읍 신영로36번길 48,33.2190593080686,126.24841489851,대정읍 하모리,42
417,모지오름,제주특별자치도 서귀포시 표선면 성읍리 산 22,33.3963983819816,126.771767130403,표선면 성읍리,22
418,모진이몽돌해변,제주특별자치도 제주시 추자면 신양리 56,33.9461033806051,126.333931047811,추자면 신양리,21
419,목시물굴,제주특별자치도 제주시 조천읍 선흘리 산26번지 일대,33.5106592430063,126.720803599357,조천읍 선흘리,52
420,목장카페드르쿰다,제주특별자치도 서귀포시 표선면 번영로 2454,33.4087931689036,126.769865986572,표선면 성읍리,21
421,목장카페드르쿰다,제주특별자치도 서귀포시 표선면 번영로 2454,33.4087931689036,126.769865986572,표선면 성읍리,32
422,목장카페밭디,제주특별자치도 서귀포시 표선면 번영로 2486,33.4079000385513,126.772216303046,표선면 성읍리,33
423,몽story,제주특별자치도 제주시 애월읍 하귀9길 34,33.4840122612377,126.416045297733,애월읍 하귀1리,45
424,몽몽까까,제주특별자치도 제주시 도남로 189,33.4856878459937,126.534473948203,아라일동,12
425,몽몽까까,제주특별자치도 제주시 도남로 189,33.4856878459937,126.534473948203,아라일동,21
426,몽몽까까,제주특별자치도 제주시 도남로 189,33.4856878459937,126.534473948203,아라일동,45
427,몽몽까까,제주특별자치도 제주시 도남로 189,33.4856878459937,126.534473948203,아라일동,51
428,묘산봉(괴살메),제주특별자치도 제주시 구좌읍 김녕리 2723,33.5427442878954,126.746159239723,구좌읍 김녕리,12
429,무거버거,제주특별자치도 제주시 조천읍 조함해안로 356,33.5489812420561,126.655065539797,조천읍 신흥리,31
430,무등이왓터,제주특별자치도 서귀포시 안덕면 신화역사로586번길 21-7,33.3094287035438,126.352093971426,안덕면 동광리,52
431,무릉곶자왈,제주특별자치도 서귀포시 대정읍 무릉리 산 1,33.2911716749841,126.26295402495,대정읍 무릉리,11
432,무릉도원마을,제주특별자치도 서귀포시 대정읍 중산간서로 2868,33.2748476484956,126.235265285574,대정읍 무릉리,41
433,무릉자전거도로(환상자전거길3구간),제주특별자치도 제주시 구좌읍 구좌해안로 237,33.5572081367731,126.736551213927,구좌읍 김녕리,52
434,무민랜드,제주특별자치도 서귀포시 안덕면 병악로 420,33.3065128094517,126.381789753033,안덕면 상천리,32
435,무비랜드왁스뮤지엄,제주특별자치도 서귀포시 중문관광로 205,33.2438863976063,126.421662385093,중문동,32
436,무수천,제주특별자치도 제주시 애월읍 무수천길,33.464070499735,126.445529525449,애월읍 광령리 ,22
437,묵리마을,제주특별자치도 제주시 추자면 묵리,33.9507771049567,126.307464664818,추자면 묵리,22
438,묵리마을,제주특별자치도 제주시 추자면 묵리,33.9507771049567,126.307464664818,추자면 묵리,41
439,묵리처녀당,제주특별자치도 제주시 추자면 묵리 229-1,33.9431854840706,126.314201629279,추자면 묵리,52
440,묵리해안쉼터,제주특별자치도 제주시 추자면 추자로 376-6,33.9449633861725,126.312040840131,추자면 묵리,52
441,묵리해안포구,제주특별자치도 제주시 추자면 추자로 365-1,33.945696377696,126.312939470415,추자면 묵리,53
442,문도지오름(문돗지),제주특별자치도 제주시 한림읍 금악리 3444,33.3267975741891,126.294471487092,한림읍 금악리,11
443,문서프,제주특별자치도 제주시 애월읍 곽지7길 1,33.4500523794457,126.308399811765,애월읍 곽지리,42
444,문석이오름[출입제한-자연휴식년제적용중],제주특별자치도 제주시 구좌읍 송당리,33.4604142355019,126.771793474053,구좌읍 송당리,12
445,문섬(서귀포해양도립공원),제주특별자치도 서귀포시 칠십리로,33.2446749504884,126.592546723809,서귀동,21
446,문쏘,제주특별자치도 제주시 한림읍 한림상로 15-5,33.4056391497558,126.256597359664,한림읍 옹포리,31
447,문화공간양,제주특별자치도 제주시 거로남6길 13,33.5092468989592,126.561755712352,화북이동,32
448,문화빳데리충전소,제주특별자치도 서귀포시 중정로 76,33.2479212053484,126.564483756251,서귀동,32
449,문화예술마을저지리농어촌체험마을,제주시 한경면 중산간서로 3675,33.3327001047296,126.255849359452,한경면 저지리,41
450,"물메(물미,수산봉)",제주특별자치도 제주시 애월읍 수산리 산 1-1,33.4738174993593,126.382839395312,애월읍 수산리,22
451,물영아리오름,제주특별자치도 서귀포시 남원읍 남조로 988-11,33.3612712046496,126.692962246783,남원읍 수망리,11
452,물찻오름[출입제한-자연휴식년제적용중],제주 제주시 조천읍 교래리,33.4312654842168,126.678365038104,조천읍 교래리,11
453,미스틱3도,제주특별자치도 제주시 1100로 2894-49 1층,33.4499956148829,126.487369517519,노형동,31
454,"미악산(턥오름,쌀오름,솔오름)",제주특별자치도 서귀포시 인정오름로 387-63,33.3005646590644,126.554207940477,동홍동,12
455,"미악산(턥오름,쌀오름,솔오름)",제주특별자치도 서귀포시 인정오름로 387-63,33.3005646590644,126.554207940477,동홍동,22
456,"미야즈클로젯(해녀복대여,해녀스냅사진촬영)",제주특별자치도 제주시 용마로4길 15,33.5154346159113,126.50667800976,용담삼동,21
457,미요캔들,제주특별자치도 제주시 구남로4길 8-1,33.4890593005342,126.534002691863,이도이동,46
458,미천굴,제주특별자치도 서귀포시 성산읍 중산간동로 4150-30,33.3849993747039,126.839859897606,성산읍 삼달리,21
459,민속자연사박물관,제주특별자치도 제주시 삼성로 40,33.5056303743354,126.531724114172,일도이동,32
460,민속해안로,제주특별자치도 서귀포시 표선면 일주동로 6228,33.3072666467279,126.806242294197,표선면 세화리,11
461,민오름(구좌읍),제주특별자치도 제주시 구좌읍 비자림로 1456,33.4447365885176,126.759099253491,구좌읍 송당리,13
462,민오름(구좌읍),제주특별자치도 제주시 구좌읍 비자림로 1456,33.4447365885176,126.759099253491,구좌읍 송당리,22
463,민오름(봉개동),제주특별자치도 제주시 칠오름길 (봉개동),33.479680913652,126.609921319556,봉개동 ,11
464,민오름(오라동),제주특별자치도 제주시 오라2동 산 12,33.4765241326101,126.506443018327,오라이동,12
465,민오름(조천읍),제주특별자치도 제주시 조천읍 선흘리 산 141,33.4454512015762,126.694700929642,조천읍 선흘리,22
466,바구스서핑스쿨,제주특별자치도 제주시 테우해안로 143,33.4975282005215,126.449581938376,이호일동,42
467,바늘오름,제주특별자치도 제주시 조천읍 교래리 산 108,33.4547981041557,126.652679893005,조천읍 교래리,22
468,바다다이브,제주특별자치도 서귀포시 동홍로12번길 5,33.2498095438541,126.568482543443,서귀동,45
469,바다를본돼지(판포점),제주특별자치도 제주시 한경면 판포1길 16,33.3656405352636,126.197922175273,한경면 판포리,31
470,바다스케치,제주특별자치도 서귀포시 안덕면 사계남로216번길 52,33.2349227288106,126.309901022706,안덕면 사계리,12
471,바람모루,제주특별자치도 서귀포시 서호동,33.2641864864094,126.517346819897,서호동,11
472,바람모루,제주특별자치도 서귀포시 서호동,33.2641864864094,126.517346819897,서호동,22
473,바람불어좋은날천연염색공방,제주특별자치도 서귀포시 안덕면 사계로 68,33.2371434635878,126.297875767526,안덕면 사계리,45
474,바산올레애견동반펜션,제주특별자치도 서귀포시 안덕면 대평로 29,33.2365991806145,126.363866962533,안덕면 창천리,12
475,바우하우스,제주특별자치도 제주시 구좌읍 문주란로 111-7,33.5226195770527,126.892653898684,구좌읍 하도리,12
476,바이나흐튼크리스마스박물관,제주특별자치도 서귀포시 안덕면 평화로 654,33.2913117398116,126.327798877807,안덕면 서광리,32
477,박물관은살아있다,제주특별자치도 서귀포시 중문관광로 42,33.2549005523668,126.40977029065,색달동,32
478,박성내,제주특별자치도 제주시 기자길 5,33.4848975260559,126.543837776942,아라이동,52
479,박수기정,제주특별자치도 서귀포시 안덕면 난드르로 90-25,33.2371648156344,126.358749069441,안덕면 감산리,21
480,반지마을제주1호점,제주특별자치도 제주시 월성로4길 17,33.5016859296873,126.5035680789,용담이동,45
481,발이오름,제주특별자치도 제주시 애월읍 어음리 산 1,33.3930395296228,126.375293344025,애월읍 어음리,11
482,발자국화석공원,제주특별자치도 서귀포시 대정읍 형제해안로 192,33.2173594034123,126.293135312424,대정읍 상모리,23
483,밧돌오름,제주특별자치도 제주시 구좌읍 송당리 산 66-1,33.4609670156076,126.761825536466,구좌읍 송당리,12
484,밧돌오름,제주특별자치도 제주시 구좌읍 송당리 산 66-1,33.4609670156076,126.761825536466,구좌읍 송당리,22
485,방림원,제주특별자치도 제주시 한경면 용금로 864,33.3372284167289,126.268512900749,한경면 저지리,21
486,방선문,제주특별자치도 제주시 종천길 39-1,33.4713429857029,126.502171579413,오라이동,22
487,방일리공원,제주특별자치도 제주시 정원로 50,33.4791376264224,126.47624624632,노형동,22
488,방주교회,제주특별자치도 서귀포시 안덕면 산록남로762번길 113,33.305124721628,126.387787906087,안덕면 상천리,22
489,배령연대,제주특별자치도 제주시 한림읍 금능리 1649,33.3879661546747,126.223722736664,한림읍 금능리,52
490,배롱정원,제주특별자치도 제주시 한림읍 협재4길 19,33.3930475283878,126.241470241303,한림읍 협재리,31
491,배롱정원,제주특별자치도 제주시 한림읍 협재4길 19,33.3930475283878,126.241470241303,한림읍 협재리,51
492,백년초농장박물관,제주특별자치도 서귀포시 태평로 200,33.2446733172468,126.543897915946,호근동,32
493,백록담,제주특별자치도 서귀포시 토평동 산 15-1,33.3469026219773,126.535454418798,토평동,21
494,백수당,제주특별자치도 제주시 구좌읍 월정1길 63,33.5565236446807,126.79350679733,구좌읍 월정리,31
495,백약이오름,제주특별자치도 서귀포시 표선면 성읍리 산 1,33.4373141994582,126.791777452404,표선면 성읍리,11
496,백제사,제주시 애월읍 광령남6길 54 백제사,33.4488555390796,126.424219685777,애월읍 광령리,52
497,백제사템플스테이,제주시 애월읍 광령남6길 54 백제사,33.4488555390796,126.424219685777,애월읍 광령리,22
498,백조일손지묘(백조일손지지),제주특별자치도 서귀포시 안덕면 사계리,33.2316941376585,126.306514122101,안덕면 사계리,52
499,뱅듸승마클럽,제주특별자치도 제주시 조천읍 번영로 1118-33,33.4666509637267,126.653491822361,조천읍 와흘리,45
500,범섬,제주특별자치도 서귀포시 법환동,33.2431480688709,126.514144783946,법환동,22
501,법화사,제주특별자치도 서귀포시 하원북로 35번길 15-28,33.2653270960144,126.457602311547,하원동,52
502,법화사지,제주특별자치도 서귀포시 하원북로35번길 15-28,33.2653270960144,126.457602311547,하원동,22
503,법환포구,제주특별자치도 서귀포시 막숙포로37번길 2,33.2378661939026,126.515729529982,법환동,52
504,벙커하우스,제주특별자치도 서귀포시 막숙포로41번길 66,33.2404621096995,126.519224758808,법환동,31
505,베릿네오름,제주특별자치도 서귀포시 중문상로17번길 51,33.2489506839682,126.419119689107,중문동,11
506,베콩스,제주특별자치도 제주시 조천읍 신북로 479-2,33.5435378606833,126.661624762526,조천읍 함덕리,45
507,별내린전망대,제주특별자치도 서귀포시 색달동 2938-1,33.2474860429014,126.416836511421,색달동,22
508,별도봉,제주특별자치도 제주시 선반로 (화북일동),33.5150945210681,126.563308773001,화북일동,11
509,별도연대,제주특별자치도 제주시 화북1동 1537,33.5262998282849,126.568135044311,화북일동,52
510,별도포구,제주특별자치도 제주시 화북1동 4269-12,33.5250263073704,126.564933622735,화북일동,52
511,별방진,제주특별자치도 제주시 구좌읍 하도리 3354,33.526852944275,126.882704852203,구좌읍 하도리,52
512,병악현무암지대,제주특별자치도 서귀포시 안덕면 사계리,33.2316941376585,126.306514122101,안덕면 사계리,11
513,병악현무암지대,제주특별자치도 서귀포시 안덕면 사계리,33.2316941376585,126.306514122101,안덕면 사계리,21
514,병악현무암지대,제주특별자치도 서귀포시 안덕면 사계리,33.2316941376585,126.306514122101,안덕면 사계리,52
515,보롬왓,제주특별자치도 서귀포시 표선면 번영로 2350-104,33.4134956403949,126.752494805945,표선면 성읍리,21
516,"보롬이(하논,화구구)",제주특별자치도 서귀포시 하논로 (서홍동),33.2508938131869,126.549207114343,대정읍 무릉리,12
517,보목포구,제주특별자치도 서귀포시 보목포로 46,33.2392180366622,126.606761567165,보목동,22
518,보물섬하이킹,제주특별자치도 제주시 용문로14길 14,33.505901821017,126.510013613274,용담이동,48
519,본초족욕,제주특별자치도 제주시 은수길 65,33.4716110212798,126.487741772457,연동,33
520,본초족욕,제주특별자치도 제주시 은수길 65,33.4716110212798,126.487741772457,연동,41
521,본카페,제주특별자치도 제주시 애월읍 애월해안로 179,33.4677832169339,126.332076364484,애월읍 고내리,31
522,본태박물관,제주특별자치도 서귀포시 안덕면 산록남로762번길 69,33.303954807155,126.392568258817,안덕면 상천리,32
523,볼레낭길,제주특별자치도 서귀포시 안덕면 감산리 1049,33.2359191933553,126.349383882443,안덕면 감산리,11
524,볼스카페,제주특별자치도 서귀포시 일주서로 626,33.2534011805032,126.44248234513,회수동,31
525,봉구의간식,제주특별자치도 제주시 애월읍 애월로 110,33.464521376059,126.319100939372,애월읍 애월리,12
526,봉구의간식,제주특별자치도 제주시 애월읍 애월로 110,33.464521376059,126.319100939372,애월읍 애월리,21
527,봉구의간식,제주특별자치도 제주시 애월읍 애월로 110,33.464521376059,126.319100939372,애월읍 애월리,45
528,봉구의간식,제주특별자치도 제주시 애월읍 애월로 110,33.464521376059,126.319100939372,애월읍 애월리,51
529,봉구의간식제주롯데마트점,제주특별자치도 제주시 연북로 1,33.4824421892687,126.481834000763,노형동,12
530,봉구의간식제주롯데마트점,제주특별자치도 제주시 연북로 1,33.4824421892687,126.481834000763,노형동,21
531,봉구의간식제주롯데마트점,제주특별자치도 제주시 연북로 1,33.4824421892687,126.481834000763,노형동,45
532,봉구의간식제주롯데마트점,제주특별자치도 제주시 연북로 1,33.4824421892687,126.481834000763,노형동,51
533,봉글레산,제주특별자치도 제주시 추자면 대서5길 1,33.9618054256706,126.293777367818,추자면 대서리,11
534,봉쥬르봉봉,제주특별자치도 제주시 한림읍 한림로 408-2,33.397857348269,126.245526707914,한림읍 협재리,46
535,뵤뵤,제주특별자치도 제주시 한림읍 명재로 155,33.3925301203484,126.263079554742,한림읍 명월리,31
536,부대악오름,제주특별자치도 제주시 조천읍 선흘리 산 103-1,33.4473731760298,126.709533747015,조천읍 선흘리,11
537,부영컨트리클럽,제주특별자치도 서귀포시 남원읍 남조로 960 부영CC,33.3592182965721,126.712464223483,남원읍 수망리,48
538,북오름,제주특별자치도 서귀포시 안덕면 동광리 산 94,33.3026723449881,126.332023417872,안덕면 동광리,13
539,북오름,제주특별자치도 서귀포시 안덕면 동광리 산 94,33.3026723449881,126.332023417872,안덕면 동광리,22
540,북촌국민학교,제주특별자치도 제주시 조천읍 일주동로 1481,33.5479352638407,126.691362701874,조천읍 북촌리,52
541,북촌돌하르방미술관,제주특별자치도 제주시 조천읍 북촌서1길 70,33.538847495859,126.688812252251,조천읍 북촌리,23
542,북촌리4.3길,제주특별자치도 제주시 조천읍 북촌3길 3,33.5460149487699,126.688656387157,조천읍 북촌리,52
543,북촌포구,제주특별자치도 제주시 조천읍 북촌9길 26-1,33.5500628443415,126.694088756899,조천읍 북촌리,52
544,북촌환해장성,제주특별자치도 제주시 조천읍 북촌리,33.5432218830703,126.690806655902,조천읍 북촌리,52
545,불카분낭(불타버린나무),제주특별자치도 제주시 조천읍 선흘리 1136-2,33.5127844585106,126.70632287888,조천읍 선흘리,52
546,불탑사(5층석탑),제주특별자치도 제주시 원당로16길 41,33.5290725932684,126.598418345536,삼양일동,52
547,붉은오름자연휴양림,제주특별자치도 서귀포시 표선면 남조로 1487-73,33.4014287623403,126.675670597493,표선면 가시리,23
548,붉은오름(성산읍),제주특별자치도 서귀포시 성산읍 섭지코지로 261,33.4258211498144,126.931367405969,성산읍 고성리,12
549,붉은오름(표선면),제주특별자치도 서귀포시 표선면 남조로 1487-73,33.4014287623403,126.675670597493,표선면 가시리,12
550,붉은오름(표선면),제주특별자치도 서귀포시 표선면 남조로 1487-73,33.4014287623403,126.675670597493,표선면 가시리,22
551,브레이브독스,제주특별자치도 제주시 한림읍 한수풀로 138,33.4216392929726,126.276595696624,한림읍 대림리,31
552,브리더스파크,제주특별자치도 제주시 구좌읍 금백조로 902-102,33.4340778065146,126.777415417885,구좌읍 송당리,45
553,브릭캠퍼스,제주특별자치도 제주시 1100로 3045,33.4578981798938,126.484472387198,노형동,32
554,블란디야,제주특별자치도 서귀포시 법환로 15,33.2366390634091,126.513554206617,법환동,12
555,블랙이쉬레드,제주특별자치도 제주시 애월읍 하소로 769-10,33.4160468362549,126.398552697244,애월읍 유수암리,31
556,블루메베이글,제주특별자치도 제주시 가령로4길 3,33.4967135854192,126.533099185111,이도이동,31
557,블루버블,제주특별자치도 서귀포시 성산읍 일출로255번길 11,33.4622543681635,126.933120711415,성산읍 성산리,48
558,블리스풀,제주특별자치도 제주시 애월읍 산록서로 383,33.4051774883172,126.407254897899,애월읍 유수암리,31
559,비고르서프,제주특별자치도 서귀포시 안덕면 형제해안로 70,33.2258392129178,126.29981736589,안덕면 사계리,45
560,비만고양이,제주특별자치도 제주시 신성로13길 31,33.4976190931895,126.530532186591,이도이동,31
561,비블리아성서식물원,제주특별자치도 제주시 한림읍 조성로 17,33.3561709772428,126.274999701315,한림읍 상명리,32
562,비양도,제주특별자치도 제주시 한림읍 협재리,33.3870124134431,126.245988070371,한림읍 협재리,22
563,비양도연평리야영지,제주 제주시 우도면 연평리 3,33.5153874083426,126.968438671438,우도면 연평리,12
564,비양도연평리야영지,제주 제주시 우도면 연평리 3,33.5153874083426,126.968438671438,우도면 연평리,23
565,비양도연평리야영지,제주 제주시 우도면 연평리 3,33.5153874083426,126.968438671438,우도면 연평리,42
566,비양도연평리야영지,제주 제주시 우도면 연평리 3,33.5153874083426,126.968438671438,우도면 연평리,52
567,비양도등대,제주특별자치도 제주시 한림읍 비양도길 84비양도,33.4058550511063,126.223186028509,한림읍 협재리,21
568,비양도의비양나무자생지,제주특별자치도 제주시 한림읍 협재리 산 89,33.4086784254916,126.225878708518,한림읍 협재리,22
569,비자림,제주특별자치도 제주시 구좌읍 비자숲길 55,33.4910972819998,126.811461205688,구좌읍 평대리,22
570,비자림농원,제주특별자치도 제주시 조천읍 선흘동1길 31-71,33.5153956066133,126.696498175809,조천읍 선흘리,41
571,비체올린,제주시 한경면 판조로 253-6,33.3494476861153,126.218190777807,한경면 판포리,32
572,비체올린,제주시 한경면 판조로 253-6,33.3494476861153,126.218190777807,한경면 판포리,46
573,비치미오름,제주특별자치도 제주시 구좌읍 송당리 산 255-1,33.4286615961813,126.7665020271,구좌읍 송당리,22
574,빌레못동굴,제주특별자치도 제주시 애월읍 어음리 1391,33.4043517126886,126.349728579887,애월읍 어음리,52
575,빛의벙커,제주특별자치도 서귀포시 성산읍 고성리 2039-22,33.4394462297885,126.899699215312,성산읍 고성리,32
576,빠우사,제주특별자치도 제주시 조천읍 선교로 539,33.4577400729584,126.711909041185,조천읍 선흘리,31
577,뽀로로&타요테마파크제주,제주특별자치도 서귀포시 안덕면 병악로 269,33.3004429637305,126.370810904853,안덕면 상창리,32
578,뽀로로&타요테마파크제주,제주특별자치도 서귀포시 안덕면 병악로 269,33.3004429637305,126.370810904853,안덕면 상창리,41
579,삐삐그루밍,제주특별자치도 서귀포시 대정읍 중산간서로 2269,33.2806351400989,126.286062533426,대정읍 구억리,45
580,사계용머리해안(해산물),제주특별자치도 서귀포시 안덕면 사계남로216번길 28,33.2337928076828,126.310841571449,안덕면 사계리,22
581,사계항,제주특별자치도 서귀포시 안덕면 사계리,33.2316941376585,126.306514122101,안덕면 사계리,52
582,사계해변,제주특별자치도 서귀포시 안덕면 사계리 2147-35,33.2281557557917,126.30834680703,안덕면 사계리,22
583,사계해안도로,제주특별자치도 서귀포시 안덕면 사계리,33.2316941376585,126.306514122101,안덕면 사계리,21
584,사라봉,제주특별자치도 제주시 사라봉동길 61,33.5176269240904,126.546156032264,건입동,11
585,사라봉공원,제주특별자치도 제주시 사라봉동길 74 (건입동),33.5186634130174,126.547689847164,건입동,23
586,사라오름,제주특별자치도 서귀포시 남원읍 신례리 산 2-1,33.3641266493346,126.605070169993,남원읍 신례리,11
587,사려니숲길,제주특별자치도 제주시 조천읍 교래리 산 137-1,33.4077032050543,126.644672355063,조천읍 교래리,11
588,사려니오름,제주특별자치도 서귀포시 남원읍 516로 1648-87,33.3688511852396,126.63398312629,남원읍 한남리,11
589,사슴공방,제주특별자치도 제주시 구좌읍 구좌로 51 3층,33.523223412093,126.856999783017,구좌읍 세화리,45
590,산굼부리,제주특별자치도 제주시 조천읍 비자림로 768,33.4348735442325,126.688504038171,조천읍 교래리,11
591,산도스카발리오홀스파크,제주특별자치도 서귀포시 안덕면 산록남로 566,33.3335449043875,126.370025465973,안덕면 광평리,45
592,산방굴사,제주특별자치도 서귀포시 안덕면 사계리 산 16,33.2423923919045,126.313950830111,안덕면 사계리,52
593,산방산,제주특별자치도 서귀포시 안덕면 사계리 산 16,33.2423923919045,126.313950830111,안덕면 사계리,11
594,산방산랜드,제주특별자치도 서귀포시 안덕면 사계남로216번길 24-32,33.233371144923,126.313291313646,안덕면 사계리,48
595,산방산수국,제주특별자치도 서귀포시 안덕면 산방로,33.2360787889703,126.310064890731,안덕면 사계리 ,21
596,산방산용머리해안지질트레일,제주특별자치도 서귀포시 안덕면 사계북로41번길 192,33.248216593136,126.298889672225,안덕면 사계리,11
597,산방산둘레길,제주특별자치도 서귀포시 안덕면 사계리 112-3,33.2334821266939,126.314630553022,안덕면 사계리,21
598,산방산유람선,제주특별자치도 서귀포시 안덕면 화순해안로106번길 16,33.2369971040116,126.335235246783,안덕면 화순리,21
599,산방산탄산온천,제주특별자치도 서귀포시 안덕면 사계북로 41번길 192,33.248216593136,126.298889672225,안덕면 사계리,22
600,산양큰엉곶,제주특별자치도제주시 한경면 청수리 956-6,33.2909229237169,126.250635997382,한경면 청수리,11
601,산지등대,제주특별자치도 제주시 사라봉동길 108-1 (건입동),33.5213876634633,126.545793983742,건입동,21
602,산지천,제주특별자치도 제주시 건입동,33.5150321079833,126.531518045313,건입동,11
603,산지천갤러리,제주특별자치도 제주시 중앙로3길 36,33.5151481375549,126.528332965211,일도일동,21
604,산지천갤러리,제주특별자치도 제주시 중앙로3길 36,33.5151481375549,126.528332965211,일도일동,32
605,산지항옛터,제주특별자치도 제주시 연무정길 28 (건입동)일대,33.5166487109185,126.535530063866,건입동,52
606,산천단,제주특별자치도 제주시 아라일동 375-4,33.447338490736,126.554377685968,아라일동,52
607,산천단곰솔,제주특별자치도 제주시 516로 3041-24,33.4476478033609,126.554696497249,아라일동,22
608,산호레저,제주특별자치도 제주시 우도면 우도해안길 73,33.4930262024357,126.950994941687,우도면 연평리,42
609,삼각봉,제주특별자치도 제주시 1100로 2070-61,33.3926868254858,126.494840454381,해안동,23
610,삼다수목장,제주특별자치도 제주시 조천읍 비자림로 485-15,33.4298248108397,126.658731449543,조천읍 교래리,45
611,삼다수숲길지질트레일,제주특별자치도 제주시 조천읍 교래3길 98,33.431795167172,126.674523991881,조천읍 교래리,11
612,삼매봉,제주특별자치도 서귀포시 남성로115번길 83,33.2438922693784,126.54634798881,서홍동,22
613,삼밭구석&동광리4·3희생자위령비,제주특별자치도 서귀포시 안덕면 동광리 1425 일대,33.3112439778875,126.330390402467,안덕면 동광리,52
614,삼사석,제주특별자치도 제주시 화북1동 1380-1,33.5209736780911,126.573782866815,화북일동,52
615,삼성혈,제주특별자치도 제주시 삼성로 22,33.5054524412427,126.528596720964,이도일동,52
616,삼양셋다리물,제주특별자치도 제주시 삼양1동 1938-9,33.5289556528478,126.589153338424,삼양일동,42
617,삼양방파제,제주특별자치도 제주시 벌랑길,33.524397789047,126.576688647907,삼양일동,22
618,삼양해수욕장,제주특별자치도 제주시 삼양이동 1960-4,33.521885794087,126.585599365994,삼양이동,43
619,삼양해안도로,제주특별자치도 제주시 삼양2동,33.5228672016569,126.584664643949,삼양이동,21
620,삼화포구,제주특별자치도 제주시 서흘1길 26,33.5287474013985,126.58910383497,삼양일동,52
621,삼화훈동물병원,제주특별자치도 제주시 동화로 12,33.5187754076762,126.572707144319,화북일동,12
622,삼화훈동물병원,제주특별자치도 제주시 동화로 12,33.5187754076762,126.572707144319,화북일동,21
623,삼화훈동물병원,제주특별자치도 제주시 동화로 12,33.5187754076762,126.572707144319,화북일동,45
624,삼화훈동물병원,제주특별자치도 제주시 동화로 12,33.5187754076762,126.572707144319,화북일동,51
625,상추자마을길,제주특별자치도 제주시 추자면 영흥리,33.9600249903178,126.296367415912,추자면 영흥리,41
626,상추자포구,제주특별자치도 제주시 추자면 대서리,33.962683900561,126.294696668705,추자면 대서리,52
627,상추자항,제주특별자치도 제주시 추자면 추자로 39,33.9624224197053,126.2953187682,추자면 대서리,12
628,상추자항,제주특별자치도 제주시 추자면 추자로 39,33.9624224197053,126.2953187682,추자면 대서리,22
629,상추자항,제주특별자치도 제주시 추자면 추자로 39,33.9624224197053,126.2953187682,추자면 대서리,43
630,상효원,제주특별자치도 서귀포시 산록남로 2847-37,33.3072167562115,126.586008524564,상효동,13
631,상효원,제주특별자치도 서귀포시 산록남로 2847-37,33.3072167562115,126.586008524564,상효동,23
632,상효원,제주특별자치도 서귀포시 산록남로 2847-37,33.3072167562115,126.586008524564,상효동,41
633,상효원,제주특별자치도 서귀포시 산록남로 2847-37,33.3072167562115,126.586008524564,상효동,52
634,새물국수,제주특별자치도 서귀포시 안덕면 화순해안로 63,33.2412244700492,126.333591567172,안덕면 화순리,31
635,새별오름,제주특별자치도 제주시 애월읍 봉성리 산 59-8,33.3674086988003,126.355252824574,애월읍 봉성리,11
636,새별프렌즈(새별헤이요목장),제주 제주시 애월읍 평화로 1529,33.361559082812,126.363653537792,애월읍 봉성리,22
637,새섬,제주특별자치도 서귀포시 남성중로 40,33.2392011725071,126.558423865174,서홍동,21
638,새시물,제주특별자치도 제주시 한림읍 상한로,33.3690608414727,126.26851758748,한림읍 상명리,22
639,새연교,제주특별자치도 서귀포시 서홍동 707-4,33.2385316399892,126.558886662963,서홍동,21
640,샘이오름,제주특별자치도 제주시 조천읍 516로,33.4278951991024,126.600212081567,조천읍 대흘리,11
641,생각하는정원,제주특별자치도 제주시 한경면 녹차분재로 675,33.3255844945227,126.255005128834,한경면 저지리,23
642,생이기정,제주특별자치도 제주시 한경면 용수리 산 60,33.3156217796019,126.167289390697,한경면 용수리,11
643,샤이니숲길,제주특별자치도 제주시 조천읍 교래리 719-10,33.4272549268897,126.661749005986,조천읍 교래리,23
644,서건도,제주특별자치도 서귀포시 강정동 산 1,33.230076674038,126.498485934147,강정동,23
645,서광리곶자왈생태탐방로,서귀포시 안덕면 서광리 산6-1,33.2851308410764,126.337979273402,안덕면 서광리,11
646,서광승마장,제주특별자치도 서귀포시 안덕면 녹차분재로 239,33.3024690803404,126.29088103858,안덕면 서광리,45
647,서귀다원,제주특별자치도 서귀포시 516로 717,33.312800682694,126.59667132986,상효동,22
648,서귀본향당,제주특별자치도 서귀포시 이중섭로 23-11,33.2463182572751,126.564707278751,서귀동,52
649,서귀포궁도장(천지정),제주특별자치도 서귀포시 중산간서로 97-40,33.259230240334,126.497966229758,강정동,13
650,서귀포궁도장(천지정),제주특별자치도 서귀포시 중산간서로 97-40,33.259230240334,126.497966229758,강정동,22
651,서귀포궁도장(천지정),제주특별자치도 서귀포시 중산간서로 97-40,33.259230240334,126.497966229758,강정동,48
652,서귀포늘바다애견동반펜션,제주특별자치도 서귀포시 안덕면 대평로 38,33.2372431567244,126.363610165584,안덕면 창천리,12
653,서귀포늘바다애견동반펜션,제주특별자치도 서귀포시 안덕면 대평로 38,33.2372431567244,126.363610165584,안덕면 창천리,45
654,서귀포다이브센터,제주특별자치도 서귀포시 남원읍 하례망장포로 65-13 2층,33.25975689827,126.6395296858,남원읍 하례리,42
655,서귀포하영올레,제주특별자치도 서귀포시 중앙로 105,33.2539547145487,126.559588270998,서홍동,22
656,서귀포농업기술센터제주농업생태원,제주특별자치도 서귀포시 남원읍 중산간동로 7413,33.2879719156491,126.607796723078,남원읍 하례리,52
657,서귀포돈사촌,제주특별자치도 서귀포시 동홍중앙로52번길 4,33.2552198436622,126.572548807658,동홍동,31
658,서귀포시립기당미술관,제주특별자치도 서귀포시 남성중로153번길 15,33.244797232858,126.551193443402,서홍동,32
659,서귀포예술의전당,제주특별자치도 서귀포시 태평로 270,33.2463334208179,126.550791145404,서홍동,32
660,서귀포유람선,제주특별자치도 서귀포시 남성중로 40,33.2392011725071,126.558423865174,서홍동,43
661,서귀포의료원,제주특별자치도 서귀포시 장수로 47,33.2559809912099,126.562948872895,동홍동,33
662,서귀포의료원,제주특별자치도 서귀포시 장수로 47,33.2559809912099,126.562948872895,동홍동,46
663,서귀포자연휴양림,제주특별자치도 서귀포시 1100로 882,33.3115019573202,126.458754738051,대포동,23
664,서귀포천문과학문화관,제주특별자치도 서귀포시 1100로 506-1,33.2888519761506,126.460413682956,하원동,32
665,서귀포층패류화석산지,제주특별자치도 서귀포시 남성중로 43,33.2397954184801,126.558266050576,서홍동,21
666,서귀포치유의숲,제주특별자치도 서귀포시 산록남로 2271,33.2919386189088,126.527902264226,호근동,11
667,서귀포치유의숲,제주특별자치도 서귀포시 산록남로 2271,33.2919386189088,126.527902264226,호근동,22
668,서귀포칠십리시공원,제주특별자치도 서귀포시 서홍동 576-9,33.2460184148318,126.553476831206,서홍동,22
669,서귀포항,제주특별자치도 서귀포시 칠십리로72번길 14,33.2389049787464,126.564869017701,서귀동,22
670,서귀포해안,제주특별자치도 서귀포시 서호동,33.2641864864094,126.517346819897,서호동,22
671,서귀포호텔카라반,제주특별자치도 서귀포시 상예로 319,33.2731320756409,126.394649837226,상예동,45
672,서귀포흑돈,제주특별자치도 서귀포시 칠십리로 278,33.24787337171,126.582210932211,토평동,31
673,서머셋제주신화월드호텔앤리조트,제주특별자치도 서귀포시 안덕면 신화역사로304번길 89,33.3028879130473,126.317536700937,안덕면 서광리,21
674,서복전시관,제주특별자치도 서귀포시 칠십리로 156-8,33.2448092310988,126.570657115757,서귀동,32
675,서부두명품횟집거리,제주특별자치도 제주시 서부두길 16,33.5176776419349,126.528333876447,건입동,32
676,서부두명품횟집거리,제주특별자치도 제주시 서부두길 16,33.5176776419349,126.528333876447,건입동,41
677,서영아리오름/용와이오름,제주 서귀포시 안덕면 상천리 산24,33.325323922268,126.399957828137,안덕면 상천리,22
678,서우봉,제주특별자치도 제주시 조천읍 함덕리 169-1,33.5453640420364,126.677541150367,조천읍 함덕리,11
679,서중천탐방로,제주특별자치도 서귀포시 남원읍 서성로 755,33.3305225860707,126.673899820322,남원읍 한남리,22
680,서프라이즈테마파크,제주특별자치도 제주시 조천읍 남조로 2243,33.4651795201705,126.6595999538,조천읍 와흘리,21
681,서프라이즈테마파크,제주특별자치도 제주시 조천읍 남조로 2243,33.4651795201705,126.6595999538,조천읍 와흘리,32
682,서프론트,제주특별자치도 제주시 애월읍 곽지5길 21,33.44913188822,126.30566232075,애월읍 곽지리,45
683,서프서프,제주특별자치도 제주시 구좌읍 해맞이해안로 468,33.5553131727149,126.796616275665,구좌읍 월정리,45
684,서프앤조이,제주특별자치도 제주시 선사로8길 12,33.5254261590536,126.587082540248,삼양일동,45
685,서피플,제주특별자치도 제주시 애월읍 곽지9길 21,33.4515200106379,126.30703266547,애월읍 곽지리,45
686,서홍정원,제주 서귀포시 솜반천로55번길 12-8,33.2525878046595,126.554413726655,서홍동,31
687,선녀와나무꾼,제주특별자치도 제주시 조천읍 선교로 267,33.4796207866526,126.702684967881,조천읍 선흘리,32
688,선운정사,제주특별자치도 제주시 애월읍 구몰동길 65,33.4293598179556,126.307146349055,애월읍 봉성리,23
689,선족이오름(알선족이),제주특별자치도 제주시 구좌읍 송당리 산 140-2,33.4421733197079,126.748565240203,구좌읍 송당리,11
690,설쿰바당,제주특별자치도 서귀포시 안덕면 사계리,33.2316941376585,126.306514122101,안덕면 사계리,21
691,섬생이,제주특별자치도 제주시 추자면 신양리 산 87,33.9399491102194,126.311274165209,추자면 신양리,22
692,섬속의섬우도렌트,제주특별자치도 제주시 우도면 우도해안길 84-2,33.4938264568534,126.950968664752,우도면 연평리,43
693,섭지코지,제주 서귀포시 성산읍 고성리,33.4493165910551,126.90826946679,성산읍 고성리,21
694,섯알오름,제주특별자치도 서귀포시 대정읍 상모리 1618,33.2041831726414,126.28155185878,대정읍 상모리,13
695,섯알오름,제주특별자치도 서귀포시 대정읍 상모리 1618,33.2041831726414,126.28155185878,대정읍 상모리,22
696,성김대건신부표착기념관,제주특별자치도 제주시 한경면 용수1길 108,33.3228626331132,126.167730757441,한경면 용수리,32
697,성널오름(성판악),제주특별자치도 서귀포시 남원읍 신례리,33.3396592626517,126.620155016799,남원읍 신례리,11
698,성불오름,제주 제주시 구좌읍 중산간동로 2532,33.4594303194233,126.808674112773,구좌읍 송당리,13
699,성불오름,제주 제주시 구좌읍 중산간동로 2532,33.4594303194233,126.808674112773,구좌읍 송당리,22
700,성산유채꽃재배단지,제주특별자치도 서귀포시 성산읍 일출로,33.4543685432767,126.925260144194,성산읍 고성리 ,21
701,성산~세화해안도로,제주특별자치도 서귀포시 성산읍 해맞이해안로 2636,33.4760692724374,126.909918457063,성산읍 시흥리,21
702,성산마씸,제주특별자치도 서귀포시 성산읍 한도로 257,33.4661151338583,126.93495479776,성산읍 성산리,31
703,성산마씸,제주특별자치도 서귀포시 성산읍 한도로 257,33.4661151338583,126.93495479776,성산읍 성산리,51
704,성산스쿠버리조트,제주특별자치도 서귀포시 성산읍 일출로 258-5,33.4609258365245,126.933606003488,성산읍 성산리,45
705,성산연화,제주특별자치도 서귀포시 성산읍 성산중앙로 22,33.4618570222651,126.932443544895,성산읍 성산리,31
706,성산오조리해안,제주특별자치도 서귀포시 성산읍 해맞이해안로 2688,33.471847863554,126.912703165215,성산읍 오조리,21
707,성산일출봉(UNESCO세계자연유산),제주특별자치도 서귀포시 성산읍 일출로 284-12,33.462233758483,126.936800689963,성산읍 성산리,21
708,성산초등학교서청특별중대주둔지,제주특별자치도 서귀포시 성산읍 성산리 179-4,33.4633148239679,126.932258359907,성산읍 성산리,52
709,성산포항,서귀포시 성산읍 성산등용로 130-21,33.4729279933634,126.934506143367,성산읍 성산리,21
710,성산포항,서귀포시 성산읍 성산등용로 130-21,33.4729279933634,126.934506143367,성산읍 성산리,52
711,성산풀하우스,제주특별자치도 서귀포시 성산읍 환해장성로121번길 21-4,33.3842437793007,126.879735906715,성산읍 신산리,12
712,성산항,제주특별자치도 서귀포시 성산읍 성산등용로 129-21,33.472471558051,126.929977265947,성산읍 성산리,12
713,성산항,제주특별자치도 서귀포시 성산읍 성산등용로 129-21,33.472471558051,126.929977265947,성산읍 성산리,23
714,성산항,제주특별자치도 서귀포시 성산읍 성산등용로 129-21,33.472471558051,126.929977265947,성산읍 성산리,43
715,성산항,제주특별자치도 서귀포시 성산읍 성산등용로 129-21,33.472471558051,126.929977265947,성산읍 성산리,52
716,성안올레,제주특별자치도 제주시 일도일동 1498,33.5098583170306,126.52712459914,일도일동,22
717,성읍녹차마을,제주특별자치도 서귀포시 표선면 중산간동로 4778,33.3809834680784,126.789974352157,표선면 성읍리,22
718,성읍랜드,제주특별자치도 서귀포시 표선면 번영로 2650,33.3985934758123,126.787306744961,표선면 성읍리,41
719,성읍목장,제주특별자치도 서귀포시 표선면 성읍리 1734,33.4043013364229,126.79182463446,표선면 성읍리,21
720,성읍민속마을,제주특별자치도 서귀포시 표선면 성읍정의현로 19,33.3845106375498,126.800376745803,표선면 성읍리,52
721,성읍승마장,제주특별자치도 서귀포시 표선면 번영로 2650,33.3985934758123,126.787306744961,표선면 성읍리,45
722,성이시돌목장,제주특별자치도 제주시 한림읍 산록남로 53,33.3459802899171,126.321867724832,한림읍 금악리,21
723,성클라라수도원금악성당,제주시 한림읍 금악북로 320,33.3479970795458,126.319345838422,한림읍 금악리,32
724,섶섬(서귀포해양도립공원),제주특별자치도 서귀포시 마소물로,33.2509580442044,126.596773556246,보목동,21
725,세계술박물관,제주특별자치도 서귀포시 표선면 한마음초등로 431,33.3539709871355,126.817592768831,표선면 하천리,32
726,세계자동차&피아노박물관,제주특별자치도 서귀포시 안덕면 중산간서로 1610,33.282942376127,126.349010409791,안덕면 상창리,32
727,세계조가비박물관,제주특별자치도 서귀포시 태평로 284,33.2474426560564,126.551629529085,서홍동,32
728,세리월드테마파크,제주특별자치도 서귀포시 법환상로2번길 97-13,33.247336165962,126.512655299507,법환동,32
729,세미오름(삼의양오름),제주특별자치도 제주시 아라동 산 24-2,33.4395285589061,126.561922654444,아라일동,13
730,세미오름(삼의양오름),제주특별자치도 제주시 아라동 산 24-2,33.4395285589061,126.561922654444,아라일동,22
731,세미오름(샘이오름),제주특별자치도 제주시 조천읍 대흘리 산 27-8,33.4737404570467,126.669272972297,조천읍 대흘리,11
732,세인트포골프장,제주특별자치도 제주시 구좌읍 선유로 445-55,33.5205815209505,126.738574879336,구좌읍 김녕리,46
733,세화항,제주특별자치도 제주시 구좌읍 세화리,33.4875100836963,126.833433649536,구좌읍 세화리,12
734,세화항,제주특별자치도 제주시 구좌읍 세화리,33.4875100836963,126.833433649536,구좌읍 세화리,23
735,세화항,제주특별자치도 제주시 구좌읍 세화리,33.4875100836963,126.833433649536,구좌읍 세화리,52
736,세화해변,제주특별자치도 제주시 구좌읍 해녀박물관길 27,33.5233717133389,126.862239713197,구좌읍 세화리,22
737,세화해안도로,제주특별자치도 제주시 구좌읍 구좌로,33.5210390527365,126.862608964913,구좌읍 ,21
738,세화해안도로,제주특별자치도 제주시 구좌읍 구좌로,33.5210390527365,126.862608964913,구좌읍 ,42
739,소금빵까페키친오즈,제주시 한림읍 협재로 208,33.3800620602414,126.251201648021,한림읍 협재리,31
740,소남머리,제주특별자치도 서귀포시 칠십리로 145,33.2443792573728,126.568940792596,서귀동,22
741,소노벨제주,제주특별자치도 제주시 조천읍 신북로 577,33.5410260306975,126.67113074618,조천읍 함덕리,12
742,소노벨제주,제주특별자치도 제주시 조천읍 신북로 577,33.5410260306975,126.67113074618,조천읍 함덕리,21
743,소노벨제주,제주특별자치도 제주시 조천읍 신북로 577,33.5410260306975,126.67113074618,조천읍 함덕리,45
744,소노벨제주,제주특별자치도 제주시 조천읍 신북로 577,33.5410260306975,126.67113074618,조천읍 함덕리,51
745,소노캄제주,제주특별자치도 서귀포시 표선면 일주동로 6347-17,33.3060125889033,126.792894733152,표선면 토산리,12
746,소노캄제주,제주특별자치도 서귀포시 표선면 일주동로 6347-17,33.3060125889033,126.792894733152,표선면 토산리,21
747,소노캄제주,제주특별자치도 서귀포시 표선면 일주동로 6347-17,33.3060125889033,126.792894733152,표선면 토산리,45
748,소노캄제주,제주특별자치도 서귀포시 표선면 일주동로 6347-17,33.3060125889033,126.792894733152,표선면 토산리,51
749,소라의성,제주특별자치도 서귀포시 칠십리로214번길 17-17,33.2451792025445,126.576955113805,동홍동,32
750,소병악(족은오름),제주특별자치도 서귀포시 안덕면 상창리 산 2-1,33.3066177538734,126.367847337938,안덕면 상창리,12
751,소소밀,제주특별자치도 제주시 한북로 139,33.4636282292805,126.530937098036,오등동,31
752,소소밀,제주특별자치도 제주시 한북로 139,33.4636282292805,126.530937098036,오등동,51
753,소수산봉(족은물뫼),제주특별자치도 서귀포시 성산읍 고성리 887,33.4369340347551,126.91213796983,성산읍 고성리,22
754,소암기념관,제주특별자치도 서귀포시 소암로 15,33.2451235976916,126.567421177926,서귀동,32
755,소인국테마파크,제주특별자치도 서귀포시 안덕면 중산간서로 1878,33.2906452180407,126.322194755069,안덕면 서광리,32
756,소정방폭포,제주특별자치도 서귀포시 칠십리로214번길 17-17,33.2451792025445,126.576955113805,동홍동,22
757,소천지,제주특별자치도 서귀포시 칠십리로485번길 2,33.2417514696036,126.602711421866,보목동,21
758,손방둥이,제주특별자치도 제주시 진군남2길 10-4 101호 손방둥이,33.4758295362012,126.477707250594,노형동,46
759,손지오름,제주특별자치도 제주시 구좌읍 종달리 산 52,33.4561431314242,126.818808194577,구좌읍 종달리,11
760,솔담한방병원,제주특별자치도 제주시 1100로 3055,33.4590435330645,126.484572527225,노형동,32
761,솔담한방병원,제주특별자치도 제주시 1100로 3055,33.4590435330645,126.484572527225,노형동,46
762,솔동산8경,제주특별자치도 서귀포시 서귀동 솔동산로,33.2426950821296,126.563634973267,애월읍 유수암리,52
763,솔트스톤브이점,제주특별자치도 제주시 광양14길 14-1,33.497924349406,126.529029344319,이도이동,31
764,송계순집터,제주특별자치도 서귀포시 대정읍 안성리 1681-1,33.2509992770167,126.277503922596,대정읍 안성리,52
765,송당나무,제주특별자치도 제주시 구좌읍 송당5길 68-140,33.4769597048872,126.789049241468,구좌읍 송당리,31
766,송당본향당,제주특별자치도 제주시 구좌읍 송당리,33.4604142355019,126.771793474053,구좌읍 송당리,52
767,송당승마장,제주특별자치도 제주시 구좌읍 번영로 2015,33.4364490559563,126.738178888776,구좌읍 송당리,45
768,송령이골,제주특별자치도 서귀포시 남원읍 한신로143번길 99,33.3189463925976,126.70527028769,남원읍 의귀리,52
769,송악산,제주특별자치도 서귀포시 대정읍 송악관광로 421-1,33.2077669201535,126.290887906913,대정읍 상모리,21
770,송악산진지동굴,제주특별자치도 서귀포시 대정읍 상모리,33.2223403696486,126.272655667072,대정읍 상모리,52
771,송악산둘레길,제주특별자치도 서귀포시 대정읍 송악관광로 421-1,33.2077669201535,126.290887906913,대정읍 상모리,21
772,송악카트체험장,제주특별자치도 서귀포시 대정읍 송악관광로 404,33.2085334820073,126.289403106405,대정읍 상모리,42
773,송죽사터,제주특별자치도 서귀포시 대정읍 안성리,33.2605831235057,126.285710783126,대정읍 안성리,32
774,쇠소깍,제주특별자치도 서귀포시 쇠소깍로 128,33.2521480808121,126.623007487274,하효동,22
775,쇠소깍,제주특별자치도 서귀포시 쇠소깍로 128,33.2521480808121,126.623007487274,하효동,42
776,쇠소깍해변,제주특별자치도 서귀포시 하효동,33.2566103527058,126.618338420041,하효동,21
777,쇠소깍해양레저타운,제주특별자치도 서귀포시 쇠소깍로 151-8 (하효동),33.2505628559007,126.621176308587,하효동,42
778,쇠와꽃승마장,제주특별자치도 서귀포시 성산읍 섭지코지로25번길 88-17,33.447315566387,126.920005641345,성산읍 고성리,43
779,수목원테마파크,제주특별자치도 제주시 은수길 69 (연동),33.4706512530824,126.488216892137,연동,32
780,수산저수지,제주특별자치도 제주시 애월읍 수산리,33.4648104256339,126.389919311456,애월읍 수산리,23
781,수악(물오름),제주특별자치도 서귀포시 남원읍 516로 1042,33.324621503829,126.609488164876,남원읍 하례리,22
782,수월봉,제주특별자치도 제주시 한경면 고산리 3760,33.2947654332257,126.163419003191,한경면 고산리,22
783,수월봉지질트레일,제주특별자치도 제주시 한경면 노을해안로 1013-70,33.2942011923765,126.1629872247,한경면 고산리,11
784,수월이못,제주특별자치도 서귀포시 대정읍 안성리 1747,33.2584078047609,126.278495605531,대정읍 안성리,22
785,수월이못,제주특별자치도 서귀포시 대정읍 안성리 1747,33.2584078047609,126.278495605531,대정읍 안성리,52
786,순례자의교회,제주특별자치도 제주시 한경면 일주서로 3960-24,33.3197882446217,126.180553356926,한경면 용수리,22
787,숨도(구.석부작박물관),제주특별자치도 서귀포시 일주동로 8941 (호근동),33.2502906728106,126.536006813907,호근동,32
788,쉐프1192레스토랑,제주특별자치도 서귀포시 성산읍 환해장성로 465,33.3985906779922,126.905191363026,성산읍 온평리,31
789,쉐프1192레스토랑,제주특별자치도 서귀포시 성산읍 환해장성로 465,33.3985906779922,126.905191363026,성산읍 온평리,51
790,쉬리의언덕,제주 서귀포시 색달동 3039-41,33.2455957918786,126.407281104691,색달동,22
791,쉼멍스테이,제주특별자치도 서귀포시 대정읍 신영로 16-14,33.223636046486,126.245980674009,대정읍 동일리,12
792,쉼멍스테이,제주특별자치도 서귀포시 대정읍 신영로 16-14,33.223636046486,126.245980674009,대정읍 동일리,21
793,쉼멍스테이,제주특별자치도 서귀포시 대정읍 신영로 16-14,33.223636046486,126.245980674009,대정읍 동일리,45
794,쉼멍스테이,제주특별자치도 서귀포시 대정읍 신영로 16-14,33.223636046486,126.245980674009,대정읍 동일리,51
795,쉼터마을유수암리농어촌체험마을,제주특별자치도 제주시 애월읍 유수암평화길 14,33.4413631103178,126.402755011903,애월읍 유수암리,41
796,슈몽슈몽,제주특별자치도 제주시 우정로18길 11,33.4848385464579,126.429611539505,외도일동,45
797,스누피가든,제주특별자치도 제주시 구좌읍 금백조로 930,33.4441312997032,126.778166881442,구좌읍 송당리,22
798,스마일러펫,제주특별자치도 제주시 애월읍 상고길 47,33.4699528786559,126.415854101731,애월읍 하귀1리,31
799,스마일러펫,제주특별자치도 제주시 애월읍 상고길 47,33.4699528786559,126.415854101731,애월읍 하귀1리,51
800,스시혼,제주특별자치도 제주시 1100로 3191,33.4714616913043,126.484386708141,노형동,31
801,스위트모텔,제주특별자치도 제주시 삼무로3길 9,33.4902091675253,126.494879014225,연동,12
802,스위트몽키,제주특별자치도 제주시 한경면 산양6길 6-9,33.2949112104288,126.235778023783,한경면 청수리,32
803,스위트몽키,제주특별자치도 제주시 한경면 산양6길 6-9,33.2949112104288,126.235778023783,한경면 청수리,41
804,스쿠버스쿨,제주특별자치도 제주시 서해안로 301,33.5089655371883,126.477561436054,도두이동,48
805,스타빌,제주특별자치도 서귀포시 안덕면 광평로 34-154,33.3387925869827,126.395694649303,안덕면 광평리,46
806,스테이지버거,제주특별자치도 제주시 구좌읍 해맞이해안로 2361,33.4904068373437,126.910720333649,구좌읍 종달리,31
807,스팅그레이,제주특별자치도 제주시 한경면 대한로 860-41,33.3040831101217,126.247343866888,한경면 청수리,31
808,스프링데일CC,제주특별자치도 서귀포시 남원읍 서성로 459번지,33.3295510824481,126.638487909207,남원읍 위미리,46
809,슬로보트,제주특별자치도 제주시 애월읍 하귀2길 46-16,33.490099197435,126.414373843192,애월읍 하귀1리,31
810,슬로보트,제주특별자치도 제주시 애월읍 하귀2길 46-16,33.490099197435,126.414373843192,애월읍 하귀1리,51
811,슬리핑라이언,제주특별자치도 서귀포시 안덕면 화순서동로 151,33.2634798631872,126.332363869896,안덕면 화순리,11
812,슬리핑라이언,제주특별자치도 서귀포시 안덕면 화순서동로 151,33.2634798631872,126.332363869896,안덕면 화순리,22
813,시루네펜션,제주특별자치도 서귀포시 검은여로 79,33.2506445629127,126.581066604939,토평동,12
814,시루네펜션,제주특별자치도 서귀포시 검은여로 79,33.2506445629127,126.581066604939,토평동,21
815,시루네펜션,제주특별자치도 서귀포시 검은여로 79,33.2506445629127,126.581066604939,토평동,45
816,시루네펜션,제주특별자치도 서귀포시 검은여로 79,33.2506445629127,126.581066604939,토평동,51
817,시크릿가든촬영지,제주특별자치도 서귀포시 중문관광로 198 (중문동),33.24291591839,126.420293320269,중문동,23
818,식전당포,제주특별자치도 제주시 광양14길 17-1,33.497581678939,126.52924943718,이도이동,31
819,신대산전망대,제주특별자치도 제주시 추자면 예초리,33.9523114131961,126.333917300094,추자면 예초리,22
820,신대해안,제주특별자치도 제주시 추자면 예초리 77,33.9529332318906,126.337332907466,추자면 예초리,21
821,신도포구,제주특별자치도 서귀포시 대정읍 신도리,33.2821934719329,126.189933674405,대정읍 신도리,52
822,신비의도로,제주특별자치도 제주시 1100로 2894-63,33.451195857925,126.487225754182,노형동,23
823,신산공원,제주특별자치도 제주시 신산로 92-12,33.5052969218664,126.533744461805,일도이동,11
824,신산공원,제주특별자치도 제주시 신산로 92-12,33.5052969218664,126.533744461805,일도이동,22
825,신산환해장성,제주특별자치도 서귀포시 성산읍 신산리,33.3845207307084,126.873099010465,성산읍 신산리,52
826,신양섭지해수욕장,제주특별자치도 서귀포시 성산읍 섭지코지로 107,33.4260423785235,126.926442688389,성산읍 고성리,42
827,신양포구,제주특별자치도 서귀포시 성산읍 고성리,33.4493165910551,126.90826946679,성산읍 고성리,52
828,신양항(하추자항),제주특별자치도 제주시 추자면 신양리,33.9472060303152,126.33140418471,추자면 신양리,13
829,신양해안도로,제주특별자치도 서귀포시 성산읍 신고로,33.4405385249181,126.916609738507,성산읍 고성리,23
830,신엄포구,제주특별자치도 제주시 애월읍 애월해안로,33.4788055431484,126.357297774339,애월읍,23
831,신창~차귀해안도로,제주특별자치도 제주시 한경면 한경해안로 470,33.3418066985226,126.171238862704,한경면 신창리,21
832,신창리포구,제주특별자치도 제주시 한경면 신창리,33.3431638631832,126.181270197879,한경면 신창리,52
833,신창풍차해안도로,제주특별자치도 제주시 한경면 신창리 1322-1,33.3434285042685,126.173908545785,한경면 신창리,21
834,신천리벽화마을,제주특별자치도 서귀포시 성산읍 신천리,33.3482991065753,126.852073939846,성산읍 신천리,21
835,신천리벽화마을,제주특별자치도 서귀포시 성산읍 신천리,33.3482991065753,126.852073939846,성산읍 신천리,52
836,신천리(용궁올레),제주특별자치도 서귀포시 성산읍 신천리,33.3482991065753,126.852073939846,성산읍 신천리,23
837,신풍리밭담길,제주특별자치도 서귀포시 성산읍 신풍하동로 39,33.3618881876801,126.840548960409,성산읍 신풍리,52
838,신화워터파크,제주특별자치도 서귀포시 안덕면 신화역사로304번길 38,33.3049726791712,126.31635202613,안덕면 서광리,32
839,신화테마파크,서귀포시 안덕면 신화역사로304번길 98,33.3065311964764,126.307543154776,안덕면 서광리,32
840,신효생활개선회,제주특별자치도 서귀포시 효돈순환로 44,33.2668392649994,126.61552839514,신효동,41
841,신효베스트마을,제주특별자치도 서귀포시 일주동로 8190,33.2607682985545,126.612415308976,신효동,41
842,신흥2리동백마을,제주특별자치도 서귀포시 남원읍 한신로531번길 22-1,33.3204726102166,126.745109716086,남원읍 신흥리,22
843,신흥리동백&향나무길,제주특별자치도 서귀포시 남원읍 신흥리 2083,33.342588237993,126.747369812077,남원읍 신흥리,23
844,신흥바다낚시공원(낚고락고),제주특별자치도 제주시 조천읍 조함해안로 247-2,33.551263263433,126.646943056048,조천읍 신흥리,45
845,심헌갤러리,제주특별자치도 제주시 아란14길 3,33.4707652336161,126.544047491659,아라일동,32
846,싱계물공원,제주 제주시 한경면 신창리 1322-1,33.3434285042685,126.173908545785,한경면 신창리,52
847,쌍용굴(한림공원),제주특별자치도 제주시 한림읍 한림로 300,33.3902248567191,126.239691183153,한림읍 협재리,21
848,썬플라워의원,제주특별자치도 제주시 한림읍 금능남로 127,33.3796761985846,126.239607831579,한림읍 협재리,33
849,썬플라워의원,제주특별자치도 제주시 한림읍 금능남로 127,33.3796761985846,126.239607831579,한림읍 협재리,46
850,아끈다랑쉬,제주특별자치도 제주시 구좌읍 세화리 2593,33.4754143972828,126.830297859546,구좌읍 세화리,11
851,아날로그감귤밭,제주특별자치도 제주시 해안마을8길 46,33.4556758294276,126.450872535931,해안동,41
852,아뜨네통나무펜션,제주특별자치도 제주시 애월읍 상하귀길 91,33.47583719327,126.416236455537,애월읍 하귀1리,12
853,아띠스떼21,제주특별자치도 서귀포시 안덕면 동광본동로 14-5,33.3074662662831,126.338034205323,안덕면 동광리,22
854,아라i동물병원,제주특별자치도 제주시 인다6길 45,33.4751788818616,126.548002526674,아라일동,12
855,아라i동물병원,제주특별자치도 제주시 인다6길 45,33.4751788818616,126.548002526674,아라일동,21
856,아라i동물병원,제주특별자치도 제주시 인다6길 45,33.4751788818616,126.548002526674,아라일동,45
857,아라i동물병원,제주특별자치도 제주시 인다6길 45,33.4751788818616,126.548002526674,아라일동,51
858,아라고나이트고온천(디아넥스호텔),제주특별자치도 서귀포시 안덕면 산록남로762번길 71,33.3029855205251,126.392815705307,안덕면 상천리,32
859,아라리오뮤지엄동문모텔1,제주특별자치도 제주시 산지로 37-5,33.5135593268326,126.528443944562,일도일동,32
860,아라리오뮤지엄동문모텔2,제주특별자치도 제주시 산지로 23,33.5149544249424,126.529362562996,건입동,32
861,아라리오뮤지엄탑동시네마,제주특별자치도 제주시 삼도2동 1261-8,33.517445248574,126.523396875442,삼도이동,32
862,아란치아,제주특별자치도 서귀포시 염돈로 65,33.2545881973713,126.491988508999,강정동,12
863,아르떼뮤지엄,제주특별자치도 제주시 애월읍 어림비로 478,33.3966980434599,126.344975902836,애월읍 어음리,32
864,아름다운피부과,"제주특별자치도 제주시 도령로 5 명은빌딩 2,3,5,7층",33.486787562871,126.479932791957,노형동,33
865,아름다운피부과,"제주특별자치도 제주시 도령로 5 명은빌딩 2,3,5,7층",33.486787562871,126.479932791957,노형동,46
866,아부오름,제주특별자치도 제주시 구좌읍 송당리 산 164-1,33.4476795924933,126.777366485068,구좌읍 송당리,13
867,아스쿰,제주특별자치도 제주시 연북신설길 39,33.4968707401575,126.552427588875,이도이동,31
868,아스쿰,제주특별자치도 제주시 연북신설길 39,33.4968707401575,126.552427588875,이도이동,51
869,아우아우,제주특별자치도 제주시 조천읍 와산3길 13-105,33.488212057621,126.693213488961,조천읍 와산리,31
870,아우아우,제주특별자치도 제주시 조천읍 와산3길 13-105,33.488212057621,126.693213488961,조천읍 와산리,51
871,아이리스촬영지(하얀등대),제주특별자치도 서귀포시 표선면,33.3267161050578,126.83098213169,표선면,21
872,아이스뮤지엄,제주특별자치도 제주시 은수길 69,33.4706512530824,126.488216892137,연동,32
873,아이존액트볼링장,제주특별자치도 서귀포시 안덕면 신화역사로304번길 98,33.3065311964764,126.307543154776,안덕면 서광리,32
874,아일랜드플라워,제주특별자치도 서귀포시 성산읍 서성일로 602,33.4243221100343,126.849638339296,성산읍 난산리,45
875,아지트포독,제주특별자치도 서귀포시 중앙로 198-20,33.2620321692747,126.560616672158,동홍동,12
876,아지트포독,제주특별자치도 서귀포시 중앙로 198-20,33.2620321692747,126.560616672158,동홍동,21
877,아지트포독,제주특별자치도 서귀포시 중앙로 198-20,33.2620321692747,126.560616672158,동홍동,45
878,아지트포독,제주특별자치도 서귀포시 중앙로 198-20,33.2620321692747,126.560616672158,동홍동,51
879,아침미소목장,제주특별자치도 제주시 첨단동길 160-20,33.4547876226385,126.586252039479,월평동,21
880,아침미소목장,제주특별자치도 제주시 첨단동길 160-20,33.4547876226385,126.586252039479,월평동,41
881,아침한의원,제주특별자치도 제주시 한림읍 한림중앙로 31,33.4120830636778,126.265375348952,한림읍 한림리,33
882,아침한의원,제주특별자치도 제주시 한림읍 한림중앙로 31,33.4120830636778,126.265375348952,한림읍 한림리,46
883,아쿠아플라넷제주,제주특별자치도 서귀포시 성산읍 섭지코지로 95,33.4329768585971,126.927795526895,성산읍 고성리,32
884,아토도예공방,제주특별자치도 서귀포시 남성로 134-1,33.2428426157617,126.55448656736,서홍동,45
885,아틀리에1950,제주특별자치도 제주시 신광로1길 44 4층,33.4919380836644,126.490458359551,연동,45
886,아프리카박물관,제주특별자치도 서귀포시 이어도로 49,33.2399765531972,126.428813675904,대포동,32
887,아홉굿마을낙천리농어촌체험마을,한경면 낙수로 97,33.3279027400347,126.226254961964,한경면 낙천리,41
888,"안녕,상이친구들",제주특별자치도 제주시 아란7길 47,33.4742451490743,126.540367022706,아라일동,45
889,안덕계곡,제주특별자치도 서귀포시 안덕면 일주서로 1524,33.2584149405092,126.35298227379,안덕면 감산리,41
890,안덕면사계어촌계,제주특별자치도 서귀포시 안덕면 형제해안로 20,33.2280964405352,126.304516013642,안덕면 사계리,21
891,안돌오름,제주특별자치도 제주시 구좌읍 송당리 산 66-2,33.4572428137559,126.756109372935,구좌읍 송당리,12
892,안돌오름,제주특별자치도 제주시 구좌읍 송당리 산 66-2,33.4572428137559,126.756109372935,구좌읍 송당리,22
893,"안세미(명도오름,明道岳)",제주특별자치도 제주시 봉개동 산2,33.468206886739,126.606102137369,봉개동,11
894,알뜨르비행장,제주특별자치도 서귀포시 대정읍 상모리 1670,33.2044507792924,126.272643631117,대정읍 상모리,52
895,"알밤(알바매기,알밤오름)",제주특별자치도 제주시 조천읍 선흘남4길 229,33.4912107347378,126.703528695619,조천읍 선흘리,12
896,"알밤(알바매기,알밤오름)",제주특별자치도 제주시 조천읍 선흘남4길 229,33.4912107347378,126.703528695619,조천읍 선흘리,22
897,알오름(성산읍),제주특별자치도 서귀포시 성산읍 시흥상동로,33.4755835627306,126.897374402134,성산읍 난산리,12
898,알오름(표선면),제주특별자치도 서귀포시 표선면 토산리 산 11,33.3277287231048,126.777135545038,표선면 토산리,11
899,알작지해변,제주특별자치도 제주시 테우해안로 60,33.4961752036017,126.441226098858,내도동,21
900,알제이,제주특별자치도 제주시 애월읍 애원로 515,33.4292988686855,126.352722700715,애월읍 상가리,41
901,알진오름(안친오름),제주특별자치도 제주시 구좌읍 송당리 880-1,33.4776330752355,126.78660384304,구좌읍 송당리,12
902,알진오름(안친오름),제주특별자치도 제주시 구좌읍 송당리 880-1,33.4776330752355,126.78660384304,구좌읍 송당리,22
903,알프스승마장포니,제주특별자치도 서귀포시 표선면 서성일로 73,33.3984275520157,126.802681245614,표선면 성읍리,45
904,앙데팡당,제주특별자치도 제주시 애월읍 신엄안3길 136-5,33.4736215027392,126.353653975484,애월읍 신엄리,33
905,앙데팡당,제주특별자치도 제주시 애월읍 신엄안3길 136-5,33.4736215027392,126.353653975484,애월읍 신엄리,41
906,앙리젤,제주특별자치도 제주시 노형12길 23,33.482619138734,126.480490828681,노형동,45
907,애견동반상추네,제주특별자치도 서귀포시 검은여로 81-3,33.2505949553621,126.580686754428,토평동,12
908,애월하물,제주특별자치도 제주시 애월읍 애월리 1727-5,33.4647758787722,126.32041270144,애월읍 애월리,22
909,애월한담카약,제주 제주시 애월읍 애월로1길 25,33.4625070040388,126.30958807087,애월읍 애월리,42
910,애월더선셋,제주특별자치도 제주시 애월읍 일주서로 6111,33.456132750896,126.308883099393,애월읍 곽지리,31
911,애월스쿠버다이빙스쿨,제주특별자치도 제주시 애월읍 애월로13길 45,33.4661335378649,126.321591095516,애월읍 애월리,42
912,애월연대,제주특별자치도 제주시 애월읍 애월리 1975,33.4656596516961,126.313059133107,애월읍 애월리,22
913,애월연대,제주특별자치도 제주시 애월읍 애월리 1975,33.4656596516961,126.313059133107,애월읍 애월리,52
914,애월오누이,제주특별자치도 제주시 애월읍 애월로9길 54,33.4667123823146,126.318801214558,애월읍 애월리,31
915,애월한담해안산책로,제주특별자치도 제주시 애월읍 곽지리 1359,33.4590846763959,126.310575628004,애월읍 곽지리,11
916,애월한담해안산책로,제주특별자치도 제주시 애월읍 곽지리 1359,33.4590846763959,126.310575628004,애월읍 곽지리,21
917,애월해안도로,제주특별자치도 제주시 애월읍 애월해안로,33.4788055431484,126.357297774339,애월읍 신엄리,21
918,애월환해장성,제주특별자치도 제주시 애월읍 애월로3길 60,33.4679999866438,126.313385336703,애월읍 애월리,52
919,액티브파크,제주특별자치도 제주시 한림읍 금능남로 76,33.3811424204917,126.236078456775,한림읍 금능리,32
920,야크마을,제주특별자치도 서귀포시 색달중앙로 162,33.2696448069146,126.416642362701,색달동,31
921,약천사,제주특별자치도 서귀포시 이어도로 293-28,33.2452784649815,126.450181604258,대포동,32
922,약천사,제주특별자치도 서귀포시 이어도로 293-28,33.2452784649815,126.450181604258,대포동,52
923,약천사템플스테이,제주특별자치도 서귀포시 이어도로 293-28 (대포동),33.2452784649815,126.450181604258,대포동,22
924,양가형제,제주특별자치도 제주시 한경면 청수동8길 3,33.3073576010795,126.254020912003,한경면 청수리,31
925,양가형제,제주특별자치도 제주시 한경면 청수동8길 3,33.3073576010795,126.254020912003,한경면 청수리,51
926,양가형제노형,제주특별자치도 제주시 노형4길 10,33.481815866776,126.475279981524,노형동,31
927,양가형제노형,제주특별자치도 제주시 노형4길 10,33.481815866776,126.475279981524,노형동,51
928,어리목계곡,제주특별자치도 제주시 1100로 2070-61,33.3926868254858,126.494840454381,해안동,11
929,어린이교통공원,제주특별자치도 제주시 명림로 437 (봉개동 4.3 공원 맞은편),33.4514707449038,126.623315505216,봉개동,21
930,어반정글부얀트무드,제주특별자치도 서귀포시 성산읍 신고로22번길 39,33.4368021705409,126.921190254075,성산읍 고성리,31
931,어반정글부얀트무드,제주특별자치도 서귀포시 성산읍 신고로22번길 39,33.4368021705409,126.921190254075,성산읍 고성리,51
932,어반정글그레이밤부,제주특별자치도 제주시 조천읍 일주동로 1611,33.5529030454954,126.704296319191,조천읍 북촌리,31
933,어반정글그레이밤부,제주특별자치도 제주시 조천읍 일주동로 1611,33.5529030454954,126.704296319191,조천읍 북촌리,51
934,어승생,제주특별자치도 제주시 해안마을7다길 9,33.4569918179631,126.458812599345,해안동,11
935,어영공원,제주특별자치도 제주시 서해안로 452 (맞은편 공원),33.5177092708978,126.487783558057,용담삼동,22
936,언더더씨스쿠버다이빙,제주특별자치도 서귀포시 소암로12번길 9,33.2442352021427,126.567104939206,서귀동,45
937,엄바위장승,제주특별자치도 제주시 추자면 예초리 332,33.9524972981713,126.328936328419,추자면 예초리,52
938,엉덩물계곡,제주특별자치도 서귀포시 중문관광로 192,33.2432311456037,126.419002905381,중문동,11
939,엉덩물계곡,제주특별자치도 서귀포시 중문관광로 192,33.2432311456037,126.419002905381,중문동,22
940,엉또폭포,제주특별자치도 서귀포시 염돈로 121-8 (강정동),33.2588214911558,126.49191775419,강정동,21
941,엉알해안,제주특별자치도 제주시 한경면 고산리 3427-33,33.2988358632777,126.168604170614,한경면 고산리,21
942,엉알해안산책로,제주특별자치도 제주시 한경면 노을해안로 1143,33.3079613197267,126.163989659588,한경면 고산리,11
943,에메랄드하우스,제주특별자치도 서귀포시 안덕면 신화역사로 545-66,33.315598562275,126.348811698432,안덕면 동광리,12
944,에버리스골프리조트,제주특별자치도 제주시 애월읍 평화로 1693-75,33.3781703139549,126.362098048999,애월읍 어음리,48
945,에이스서프,제주특별자치도 제주시 구좌읍 월정7길 62-1,33.5555957329344,126.795631156001,구좌읍 월정리,45
946,에코랜드테마파크,제주특별자치도 제주시 조천읍 번영로 1278-169,33.4553485144602,126.668852765522,조천읍 대흘리,32
947,에코승마아카데미,제주특별자치도 제주시 조천읍 비자림로 1065,33.4345513024284,126.718682007986,조천읍 교래리,45
948,에퀴녹스드협재,제주특별자치도 제주시 한림읍 협재10길 4,33.3986027956625,126.24665684022,한림읍 협재리,12
949,에퀴녹스드협재,제주특별자치도 제주시 한림읍 협재10길 4,33.3986027956625,126.24665684022,한림읍 협재리,21
950,에퀴녹스드협재,제주특별자치도 제주시 한림읍 협재10길 4,33.3986027956625,126.24665684022,한림읍 협재리,45
951,에퀴녹스드협재,제주특별자치도 제주시 한림읍 협재10길 4,33.3986027956625,126.24665684022,한림읍 협재리,51
952,엔젤하우스,제주특별자치도 제주시 애월읍 신엄안3길 95,33.4723983936724,126.357778732797,애월읍 고내리,12
953,엔젤하우스,제주특별자치도 제주시 애월읍 신엄안3길 95,33.4723983936724,126.357778732797,애월읍 고내리,22
954,엘파소,제주특별자치도 서귀포시 안덕면 화순로 191-43,33.2453903590287,126.32592273528,안덕면 화순리,31
955,엠버퓨어힐호텔&리조트,제주특별자치도 제주시 1100로 2671-30,33.4241977888986,126.488001386103,노형동,12
956,엠버퓨어힐호텔&리조트,제주특별자치도 제주시 1100로 2671-30,33.4241977888986,126.488001386103,노형동,21
957,엠버퓨어힐호텔&리조트,제주특별자치도 제주시 1100로 2671-30,33.4241977888986,126.488001386103,노형동,45
958,엠버퓨어힐호텔&리조트,제주특별자치도 제주시 1100로 2671-30,33.4241977888986,126.488001386103,노형동,51
959,여미지식물원,제주특별자치도 서귀포시 중문관광로 93,33.2544458442202,126.414495944764,색달동,21
960,여미지식물원,제주특별자치도 서귀포시 중문관광로 93,33.2544458442202,126.414495944764,색달동,32
961,여미지식물원,제주특별자치도 서귀포시 중문관광로 93,33.2544458442202,126.414495944764,색달동,41
962,연대포구,제주특별자치도 제주시 외도2동,33.4945540285904,126.433653396456,외도이동,51
963,연미마을(오라리방화사건현장),제주특별자치도 제주시 오라동,33.4889179032603,126.498229141199,오라동,52
964,연북정,제주특별자치도 제주시 조천읍 조천리 2690,33.5401954944093,126.635975929695,조천읍 조천리,52
965,연화못,제주특별자치도 제주시 애월읍 고하상로,33.4443085845117,126.356487811298,한경면 청수리,22
966,열리해안길,제주특별자치도 서귀포시 하예동,33.2412109273802,126.378717518735,하예동,13
967,영남동,제주특별자치도 서귀포시 산록남로 1966-34,33.2887737465342,126.496097584808,영남동,52
968,영등할망신화공원,제주 제주시 한림읍 귀덕11길 19,33.4452101456172,126.294445478479,한림읍 귀덕리,52
969,영모원,제주특별자치도 제주시 애월읍 하귀리 1130-1,33.4722057260972,126.41825985759,애월읍 하귀1리,52
970,영실기암,제주특별자치도 서귀포시 하원동,33.2785360586219,126.4660226653,하원동,22
971,영주산,제주특별자치도 서귀포시 표선면 번영로,33.3794712159257,126.797537576448,표선면 성읍리 ,11
972,영천악(영천오름),제주특별자치도 서귀포시 516로 652,33.3082895248446,126.599409871487,상효동,12
973,영천악(영천오름),제주특별자치도 서귀포시 516로 652,33.3082895248446,126.599409871487,상효동,21
974,예래생태체험관,제주특별자치도 서귀포시 예래로 213,33.2444721393223,126.39084905018,하예동,23
975,예래생태체험관,제주특별자치도 서귀포시 예래로 213,33.2444721393223,126.39084905018,하예동,41
976,예래해안도로,제주특별자치도 서귀포시 예래해안로,33.2378107424623,126.39034473571,하예동,22
977,예술공간이아,제주특별자치도 제주시 중앙로14길 21,33.5110697247099,126.522361679677,삼도이동,31
978,예술공간이아,제주특별자치도 제주시 중앙로14길 21,33.5110697247099,126.522361679677,삼도이동,51
979,예이츠산장,서귀포시 남원읍 516로 918,33.3257243222958,126.601046700237,남원읍 하례리,12
980,예절이오름(여절악),제주특별자치도 서귀포시 남원읍 신흥리 산 18,33.3480769390378,126.736002713044,남원읍 신흥리,11
981,예초리,제주특별자치도 제주시 추자면 예초리,33.9523114131961,126.333917300094,추자면 예초리,22
982,예초리기정길,제주특별자치도 제주시 추자면 예초리 산 1,33.9556874849354,126.337992682431,추자면 예초리,11
983,예초리포구,제주특별자치도 제주시 추자면 추자로 753,33.9557071146034,126.332280196253,추자면 예초리,53
984,예초리해변,제주특별자치도 제주시 추자면 예초리,33.9523114131961,126.333917300094,추자면 예초리,21
985,예촌민박,서귀포시 남원읍 중산간동로 7126,33.2836431614077,126.631077921242,남원읍 신례리,23
986,옛마을펜션,제주특별자치도 서귀포시 검은여로 80,33.2507874102604,126.581664492276,토평동,12
987,옛마을펜션,제주특별자치도 서귀포시 검은여로 80,33.2507874102604,126.581664492276,토평동,21
988,옛마을펜션,제주특별자치도 서귀포시 검은여로 80,33.2507874102604,126.581664492276,토평동,45
989,옛마을펜션,제주특별자치도 서귀포시 검은여로 80,33.2507874102604,126.581664492276,토평동,51
990,오데뜨,제주특별자치도 제주시 한림읍 중산간서로 4995-6,33.4108751922188,126.295578088098,한림읍 상대리,31
991,오라동청보리-메밀꽃밭,제주특별자치도 제주시 오라2동 산 76,33.4271589152458,126.505783566255,오라이동,11
992,오라동청보리-메밀꽃밭,제주특별자치도 제주시 오라2동 산 76,33.4271589152458,126.505783566255,오라이동,21
993,오롯바이에퀴녹스,제주특별자치도 제주시 한림읍 금능길 75,33.3890146382948,126.23092406731,한림읍 금능리,12
994,오롯바이에퀴녹스,제주특별자치도 제주시 한림읍 금능길 75,33.3890146382948,126.23092406731,한림읍 금능리,21
995,오롯바이에퀴녹스,제주특별자치도 제주시 한림읍 금능길 75,33.3890146382948,126.23092406731,한림읍 금능리,45
996,오롯바이에퀴녹스,제주특별자치도 제주시 한림읍 금능길 75,33.3890146382948,126.23092406731,한림읍 금능리,51
997,오름터민속마을,제주특별자치도 서귀포시 표선면 성읍정의현로 99,33.3914864052332,126.800622951102,표선면 성읍리,52
998,오림반,제주특별자치도 서귀포시 남원읍 신례리,33.3396592626517,126.620155016799,남원읍 신례리,52
999,오멍가멍애견카페&호텔,제주특별자치도 제주시 어영길 64-14,33.5174365617701,126.498230097705,용담삼동,31
1000,오백나한,제주특별자치도 서귀포시 영실로 245 (하원동),33.3403870154697,126.480817552473,하원동,21
1001,오버더센스,제주특별자치도 서귀포시 칠십리로 655,33.2508988248671,126.615250210134,하효동,31
1002,오설록티뮤지엄,제주특별자치도 서귀포시 안덕면 신화역사로 15,33.3059240323368,126.289492214804,안덕면 서광리,22
1003,오조포구,제주특별자치도 서귀포시 성산읍 오조리,33.4613428931844,126.906686300322,성산읍 오조리,52
1004,오현단,제주특별자치도 제주시 오현길 61,33.5101519224494,126.525509986825,이도일동,52
1005,오후세시의고양이,제주특별자치도 제주시 설촌로6길 18,33.5228152940103,126.58335637593,삼양이동,22
1006,옥돔마을,제주특별자치도 서귀포시 남원읍 남태해안로 508,33.2867869152026,126.750482509448,남원읍 태흥리,41
1007,온더스톤펜션,제주특별자치도 서귀포시 성산읍 해맞이해안로 2746,33.4702545409862,126.917847071706,성산읍 오조리,12
1008,온평리포구,제주특별자치도 서귀포시 성산읍 온평리,33.4094385917563,126.897272828611,성산읍 온평리,52
1009,온평리환해장성,제주특별자치도 서귀포시 성산읍 온평리 66-2,33.4170305150617,126.910726255393,성산읍 온평리,52
1010,올디벗구디,제주특별자치도 서귀포시 일주서로 330,33.2529594300667,126.473460078558,도순동,31
1011,올레바당체험마을,제주특별자치도 제주시 한림읍 한림해안로 267-6,33.4254617710107,126.264123060344,한림읍 수원리,45
1012,올레산야초,제주특별자치도 제주시 애월읍 유수암서길 57,33.4272146205382,126.391910903289,애월읍 유수암리,22
1013,올레산야초,제주특별자치도 제주시 애월읍 유수암서길 57,33.4272146205382,126.391910903289,애월읍 유수암리,31
1014,올레여행자센터,제주특별자치도 서귀포시 중정로 22,33.2474054910319,126.558657418955,서귀동,11
1015,올레해오름펜션,제주특별자치도 제주시 애월읍 광령평화2길 142-19,33.4321073830509,126.433255341822,애월읍 광령리,12
1016,옵데가바이에퀴녹스,제주특별자치도 제주시 한림읍 협재10길 4,33.3986027956625,126.24665684022,한림읍 협재리,12
1017,옵데가바이에퀴녹스,제주특별자치도 제주시 한림읍 협재10길 4,33.3986027956625,126.24665684022,한림읍 협재리,21
1018,옵데가바이에퀴녹스,제주특별자치도 제주시 한림읍 협재10길 4,33.3986027956625,126.24665684022,한림읍 협재리,45
1019,옵데가바이에퀴녹스,제주특별자치도 제주시 한림읍 협재10길 4,33.3986027956625,126.24665684022,한림읍 협재리,51
1020,옷귀마테마타운,제주특별자치도 서귀포시 남원읍 서성로 955-117,33.3404685035562,126.683424678919,남원읍 한남리,46
1021,옹포천,제주특별자치도 제주시 한림읍 한림로 563,33.4075426539332,126.2572717177,한림읍 옹포리,22
1022,옹포포구,제주특별자치도 제주시 한림읍 옹포리,33.4024302087271,126.255047668048,한림읍 옹포리,21
1023,와랑식탁,제주특별자치도 제주시 한경면 한경해안로 512-8,33.3432067693141,126.175925386644,한경면 신창리,31
1024,와흘본향당,제주특별자치도 제주시 조천읍 와흘리 1274-1,33.5023839478688,126.639012980642,조천읍 와흘리,52
1025,왈종미술관,제주특별자치도 서귀포시 칠십리로214번길 30,33.2453021238586,126.573662921085,동홍동,32
1026,왕이메오름,제주특별자치도 서귀포시 안덕면 광평리 산 79,33.3402649312286,126.374161518111,안덕면 광평리,22
1027,외도339,제주특별자치도 제주시 일주서로 7345,33.4937415292097,126.431706378231,외도이동,31
1028,외돌개,제주특별자치도 서귀포시 서홍동 791,33.240076867127,126.545663944153,서홍동,21
1029,요가느림원,제주특별자치도 제주시 원노형2길 33,33.4832940677158,126.48167442329,노형동,41
1030,요기개,제주특별자치도 제주시 오남로 280,33.4712459475392,126.513312195139,오라이동,21
1031,요기개,제주특별자치도 제주시 오남로 280,33.4712459475392,126.513312195139,오라이동,33
1032,요기개,제주특별자치도 제주시 오남로 280,33.4712459475392,126.513312195139,오라이동,46
1033,요람,제주특별자치도 서귀포시 검은여로129번길 13,33.2532484099498,126.583086989026,토평동,31
1034,요우르,제주특별자치도 제주시 조천읍 조함해안로 343,33.5493071365552,126.654117334774,조천읍 신흥리,31
1035,용눈이오름,제주특별자치도 제주시 구좌읍 종달리 산28,33.4612408545956,126.833554576698,구좌읍 종달리,11
1036,용담1동벽화거리,제주특별자치도 제주시 서문로5길 1,33.5117528903118,126.517021113775,용담일동,21
1037,용담1동벽화거리,제주특별자치도 제주시 서문로5길 1,33.5117528903118,126.517021113775,용담일동,52
1038,용담/용두암해안도로,제주특별자치도 제주시 서해안로 687-8,33.5155491953863,126.512092759277,용담이동,13
1039,용담/용두암해안도로,제주특별자치도 제주시 서해안로 687-8,33.5155491953863,126.512092759277,용담이동,21
1040,용담레포츠공원,제주특별자치도 제주시 서해안로 580,33.5182371195832,126.499442747784,용담삼동,42
1041,용두암,제주특별자치도 제주시 용두암길 15,33.5148035919525,126.511798046978,용담이동,21
1042,용두암해안도로카페거리,제주특별자치도 제주시 용담3동,33.5176026138478,126.492845368496,용담삼동,23
1043,용머리해안,제주특별자치도 서귀포시 안덕면 사계리 112-3,33.2334821266939,126.314630553022,안덕면 사계리,22
1044,용수항,제주특별자치도 제주시 한경면 용수리,33.3176923078626,126.183497241224,한경면 용수리,53
1045,용연,제주특별자치도 제주시 흥운길 73,33.5152034015614,126.513987656046,용담이동,23
1046,용연카누클럽,제주특별자치도 제주시 흥운길 79,33.5156397160603,126.513927739567,용담이동,22
1047,우도득성이코지,제주특별자치도 제주시 우도면 연평리,33.5059831398525,126.960256641493,우도면 연평리,21
1048,우도봉수대,제주특별자치도 제주시 우도면 연평리 798,33.5245908506294,126.952559341545,우도면 연평리,52
1049,우도비양도,제주특별자치도 제주시 우도면 연평리,33.5059831398525,126.960256641493,우도면 연평리,21
1050,우도(해양도립공원),제주특별자치도 제주시 우도면 삼양고수물길 1,33.5194719510559,126.951016739939,우도면 연평리,21
1051,우도등대,제주특별자치도 제주시 우도면 우도봉길 105,33.4929711168335,126.965120541552,우도면 연평리,21
1052,우도봉풍경,제주특별자치도 제주시 우도면 연평리 1,33.515027852976,126.96916889093,우도면 연평리,21
1053,우도산호해변홍조단괴서빈백사,제주특별자치도 제주시 우도면 우도해안길 252,33.5026665933324,126.94374024047,우도면 연평리,21
1054,우도올레보트,제주특별자치도 제주시 우도면 우도해안길 181 우도올레보트,33.496780771547,126.944610220836,우도면 연평리,42
1055,우도잠수함(제주씨월드),제주특별자치도 서귀포시 성산읍 성산등용로 130-21,33.4729279933634,126.934506143367,성산읍 성산리,42
1056,"우연히,그곳",제주특별자치도 제주시 구좌읍 중산간동로 2250,33.4717184621206,126.782768546462,구좌읍 송당리,31
1057,우포토시네마갤러리카페,제주특별자치도 서귀포시 대정읍 상모로 216-2,33.2253039188155,126.265921815377,대정읍 상모리,31
1058,웁스마이독,제주특별자치도 서귀포시 안덕면 사계로 112,33.2402748062598,126.300329655998,안덕면 사계리,12
1059,웁스마이독,제주특별자치도 서귀포시 안덕면 사계로 112,33.2402748062598,126.300329655998,안덕면 사계리,21
1060,웁스마이독,제주특별자치도 서귀포시 안덕면 사계로 112,33.2402748062598,126.300329655998,안덕면 사계리,45
1061,웁스마이독,제주특별자치도 서귀포시 안덕면 사계로 112,33.2402748062598,126.300329655998,안덕면 사계리,51
1062,"웃밤(웃바매기,웃밤오름)",제주특별자치도 제주시 조천읍 선흘리 산 84,33.4781790570626,126.714271523031,조천읍 선흘리,11
1063,웃세오름(누운오름),제주특별자치도 서귀포시 영남동 산 1-1,33.3445962067225,126.513233873939,영남동,11
1064,웃세오름(족은오름),제주특별자치도 제주시 애월읍 평화로,33.4074238583669,126.388718059835,애월읍 광령리,11
1065,원당봉,제주특별자치도 제주시 원당로16길 16-30,33.5260044650435,126.598220138483,삼양일동,11
1066,원동,제주특별자치도 제주시 애월읍 평화로 1984,33.4006485416183,126.380593687681,애월읍 소길리,52
1067,원앙카라반캠핑장앤야영장,제주특별자치도 서귀포시 돈내코로 120,33.3001329579601,126.584438002767,상효동,42
1068,원앙폭포,제주특별자치도 서귀포시 돈내코로 137,33.3005023955254,126.581950534184,상효동,21
1069,월나봉(도래오름),제주특별자치도 서귀포시 안덕면 감산리 1148 일대,33.2444006292858,126.349866241373,안덕면 감산리,12
1070,월대천,제주특별자치도 제주시 월대6길 5,33.4935250574689,126.435988376222,외도이동,22
1071,월라봉진지동굴(안덕면),제주특별자치도 서귀포시 안덕면 감산리 1803,33.2442631470324,126.342016602415,안덕면 감산리,22
1072,월라봉(효돈),제주특별자치도 서귀포시 월라봉로 76-40,33.2705118414999,126.604565500491,신효동,11
1073,월령선인장군락지,제주특별자치도 제주시 한림읍 월령리 359-4,33.3778781706577,126.215431427208,한림읍 월령리,21
1074,월령포구,제주특별자치도 제주시 한림읍 월령리,33.3717123979764,126.221160587978,한림읍 월령리,52
1075,월정투명카약,제주특별자치도 제주시 구좌읍 월정리 1400-33,33.5638197453372,126.778664097015,구좌읍 월정리,42
1076,월정리해변,제주특별자치도 제주시 구좌읍 월정리 33-3,33.555112541169,126.798640676717,구좌읍 월정리,21
1077,월정리해안도로,제주특별자치도 제주시 구좌읍 월정리 652-4,33.5565877379485,126.79491098263,구좌읍 월정리,21
1078,월정조용한카페앤펍,제주특별자치도 제주시 구좌읍 월정1길 64-1,33.5562558820111,126.793621366175,구좌읍 월정리,31
1079,월정퀵서프,제주특별자치도 제주시 구좌읍 해맞이해안로 486,33.5547235169193,126.798870946339,구좌읍 월정리,45
1080,월평포구,제주특별자치도 서귀포시 말질로 462,33.2344948423038,126.463771920904,월평동,52
1081,웨스티하우스,제주도 서귀포시 안덕면 일주서로 1488번길9,33.2610125704538,126.355809566578,안덕면 감산리,12
1082,위미리동백나무군락,제주 서귀포시 위미중앙로300번길 15,33.2727234850834,126.675138292326,남원읍 위미리,21
1083,위미항,제주특별자치도 서귀포시 남원읍 위미중앙로196번길 6-13,33.2712754655094,126.662380310247,남원읍 위미리,21
1084,위미항,제주특별자치도 서귀포시 남원읍 위미중앙로196번길 6-13,33.2712754655094,126.662380310247,남원읍 위미리,42
1085,위미항,제주특별자치도 서귀포시 남원읍 위미중앙로196번길 6-13,33.2712754655094,126.662380310247,남원읍 위미리,52
1086,윈드1947카트테마파크,제주특별자치도 서귀포시 토평공단로 78-27,33.2895183041826,126.588828203157,토평동,22
1087,윈드1947카트테마파크,제주특별자치도 서귀포시 토평공단로 78-27,33.2895183041826,126.588828203157,토평동,41
1088,윗세오름(웃세오름),제주특별자치도 제주시 애월읍 광령리 산 183-1,33.3708702070152,126.477745019755,애월읍 광령리,11
1089,유건에오름,제주특별자치도 서귀포시 성산읍 난산리 2302,33.41355124619,126.846771881826,성산읍 난산리,11
1090,유동룡미술관,제주특별자치도 제주시 한림읍 용금로 906-10,33.3405890702826,126.270787924041,한림읍 월림리,32
1091,유민미술관,제주특별자치도 서귀포시 성산읍 고성리 21,33.4290205536784,126.932230925074,성산읍 고성리,32
1092,유수암캠핑장,제주특별자치도 제주시 애월읍 하소로 684-25,33.4221270603917,126.393689669582,애월읍 유수암리,45
1093,유진팡열대과일농장,제주특별자치도 서귀포시 남원읍 원님로399번길 31-7,33.3399177575569,126.742515748251,남원읍 신흥리,21
1094,유캔들잇스튜디오,제주특별자치도 제주시 정든로 5,33.4981049427795,126.540144012013,이도이동,45
1095,유캠프,제주특별자치도 제주시 애조로 1216,33.4610491612695,126.510952262437,오라이동,33
1096,유캠프,제주특별자치도 제주시 애조로 1216,33.4610491612695,126.510952262437,오라이동,41
1097,육시우영,제주특별자치도 제주시 애월읍 하가리,33.4558140247856,126.354595299818,애월읍 하가리,52
1098,율랜드다이브센터,제주특별자치도 서귀포시 칠십리로 490,33.2415325689839,126.603083554746,보목동,41
1099,이너프,제주특별자치도 제주시 애월읍 고성8길 33,33.4560054741181,126.418969326389,애월읍 고성리,31
1100,이니스프리제주하우스,제주특별자치도 서귀포시 안덕면 신화역사로 23,33.3066749563549,126.290892953867,안덕면 서광리,22
1101,이니스프리제주하우스,제주특별자치도 서귀포시 안덕면 신화역사로 23,33.3066749563549,126.290892953867,안덕면 서광리,32
1102,이덕구산전,제주특별자치도 제주시 조천읍 516로 1865,33.3844995042587,126.619407091901,조천읍 교래리,52
1103,이도씨동물의료센터,제주특별자치도 서귀포시 신서귀로97번길 51,33.2539879848355,126.506975247499,강정동,12
1104,이도씨동물의료센터,제주특별자치도 서귀포시 신서귀로97번길 51,33.2539879848355,126.506975247499,강정동,21
1105,이도씨동물의료센터,제주특별자치도 서귀포시 신서귀로97번길 51,33.2539879848355,126.506975247499,강정동,45
1106,이도씨동물의료센터,제주특별자치도 서귀포시 신서귀로97번길 51,33.2539879848355,126.506975247499,강정동,51
1107,이랜드뮤지엄,제주특별자치도 제주시 한림해안로 530,33.4357631895634,126.274436022756,한림읍 귀덕리,32
1108,이로이로공방,제주특별자치도 제주시 구좌읍 하도7길 16-11,33.5157158079828,126.886353455916,구좌읍 하도리,22
1109,이루다동물병원,제주특별자치도 제주시 건주로3길 19,33.5167677827659,126.581406585894,도련일동,12
1110,이루다동물병원,제주특별자치도 제주시 건주로3길 19,33.5167677827659,126.581406585894,도련일동,21
1111,이루다동물병원,제주특별자치도 제주시 건주로3길 19,33.5167677827659,126.581406585894,도련일동,45
1112,이루다동물병원,제주특별자치도 제주시 건주로3길 19,33.5167677827659,126.581406585894,도련일동,51
1113,이상한나라의앨리스,제주특별자치도 서귀포시 안덕면 중산간서로 1881,33.2889423633361,126.321784410657,안덕면 서광리,32
1114,이승이오름(이승악),제주특별자치도 서귀포시 남원읍 신례리 산 12-19,33.3147529951847,126.631089653449,남원읍 신례리,13
1115,이중섭거리,제주특별자치도 서귀포시 이중섭로 4-1 (서귀동),33.2476152263965,126.564004655177,서귀동,11
1116,이중섭거주지,제주특별자치도 서귀포시 이중섭로 29,33.2454904122434,126.564459007282,서귀동,52
1117,이중섭미술관,제주특별자치도 서귀포시 이중섭로 27-3,33.2458616256484,126.564874573921,서귀동,32
1118,이편한치과,제주특별자치도 제주시 연북로 527 반디빌딩 5층,33.4851989356373,126.536163681745,아라일동,33
1119,이편한치과,제주특별자치도 제주시 연북로 527 반디빌딩 5층,33.4851989356373,126.536163681745,아라일동,46
1120,이호-내도해안도로,제주특별자치도 제주시 테우해안로 60,33.4961752036017,126.441226098858,내도동,21
1121,이호털보네배낚시,제주특별자치도 제주시 이호1동 1787,33.4971983959717,126.449357934605,이호일동,48
1122,이호테우말등대,제주특별자치도 제주시 서해안로 58,33.5021616140262,126.456416871797,이호일동,21
1123,이호테우해수욕장,제주특별자치도 제주시 도리로 20,33.4961965681116,126.455892860155,이호이동,21
1124,인더하우스,제주특별자치도 제주시 애월읍 엄장로 98-41,33.4647304285036,126.374929178348,애월읍 신엄리,12
1125,인스밀,제주특별자치도 서귀포시 대정읍 일과대수로27번길 22,33.2384787715141,126.229230662407,대정읍 일과리,31
1126,인스밀,제주특별자치도 서귀포시 대정읍 일과대수로27번길 22,33.2384787715141,126.229230662407,대정읍 일과리,51
1127,인터포레스트,제주특별자치도 제주시 구좌읍 비자림로 1655,33.4572367634912,126.77236758151,구좌읍 송당리,31
1128,인터포레스트,제주특별자치도 제주시 구좌읍 비자림로 1655,33.4572367634912,126.77236758151,구좌읍 송당리,51
1129,인투다이브,제주특별자치도 서귀포시 남성중로 169,33.2468749757176,126.552702355244,서홍동,45
1130,일레븐프리다이빙제주센터,제주특별자치도 서귀포시 색달로 8,33.2591273674855,126.404874677986,색달동,45
1131,일이오구스튜디오,제주특별자치도 서귀포시 성산읍 난산로27번길 17,33.3992833409892,126.871994036184,성산읍 난산리,12
1132,일이오구스튜디오,제주특별자치도 서귀포시 성산읍 난산로27번길 17,33.3992833409892,126.871994036184,성산읍 난산리,21
1133,일이오구스튜디오,제주특별자치도 서귀포시 성산읍 난산로27번길 17,33.3992833409892,126.871994036184,성산읍 난산리,45
1134,일이오구스튜디오,제주특별자치도 서귀포시 성산읍 난산로27번길 17,33.3992833409892,126.871994036184,성산읍 난산리,51
1135,일출랜드,제주특별자치도 서귀포시 성산읍 중산간동로 4150-30,33.3849993747039,126.839859897606,성산읍 삼달리,32
1136,일출랜드아트센터,제주특별자치도 서귀포시 성산읍 중산간동로 4150-30,33.3849993747039,126.839859897606,성산읍 삼달리,22
1137,임문숙가족헛묘,제주특별자치도 서귀포시 안덕면 동광리 807-4,33.3090097791063,126.340569987948,안덕면 동광리,52
1138,입산봉(삿갓오름),제주특별자치도 제주시 구좌읍 김녕리 1033-19,33.5490364467221,126.755626096767,구좌읍 김녕리,12
1139,자구내포구,제주특별자치도 제주시 한경면 고산리,33.2916117743137,126.168933783656,한경면 고산리,22
1140,자구리공원,제주특별자치도 서귀포시 칠십리로 145,33.2443792573728,126.568940792596,서귀동,22
1141,자리왓,제주특별자치도 제주시 애월읍 봉성리 1417-1,33.4034428029671,126.328433278143,애월읍 봉성리,52
1142,"자배봉(자배오름,망오름)",제주특별자치도 서귀포시 남원읍 위미리 산 132-1,33.3015304901607,126.675978662543,남원읍 위미리,11
1143,자연인,제주특별자치도 제주시 아란서길 110,33.4687254010892,126.539956497336,아라일동,47
1144,잠수타기다이브클럽,제주특별자치도 서귀포시 천지연로41번길 7,33.2419067517381,126.561599693025,서귀동,45
1145,장생의숲길,제주특별자치도 제주시 명림로 584,33.4400488067904,126.625203401207,봉개동,11
1146,장전리벚꽃축제길,제주특별자치도 제주시 애월읍 광상로 403,33.4432745956225,126.390602017496,애월읍 장전리,11
1147,저지예술인마을,제주특별자치도 제주시 한경면 저지14길 28-4,33.3395129599022,126.267118243335,한경면 저지리,41
1148,"저지오름(닥몰오름,새오름)",제주특별자치도 제주시 한경면 저지리 산 51,33.3329735875886,126.250964202473,한경면 저지리,11
1149,전농로서사라문화거리,제주특별자치도 제주시 서사로7길 27,33.5065875045829,126.52237166739,삼도이동,11
1150,전농로서사라문화거리,제주특별자치도 제주시 서사로7길 27,33.5065875045829,126.52237166739,삼도이동,52
1151,절물오름(큰대나),제주특별자치도 제주시 명림로 584 일대,33.4400488067904,126.625203401207,봉개동,11
1152,절부암,제주특별자치도 제주시 한경면 용수3길 22,33.3239310751447,126.167200915927,한경면 용수리,21
1153,점보빌리지,제주특별자치도 서귀포시 안덕면 평화로 319번길 31-11,33.2762482071001,126.305080525176,안덕면 서광리,32
1154,정모시쉼터,제주특별자치도 서귀포시 부두로5번길 9,33.2447148448718,126.566192015368,서귀동,22
1155,정물오름,제주특별자치도 제주시 한림읍 금악리 산 52-1,33.3379310064678,126.329915145767,한림읍 금악리,12
1156,정방폭포,제주특별자치도 서귀포시 칠십리로214번길 37,33.2447479528836,126.573050130319,동홍동,21
1157,정의향교,제주특별자치도 서귀포시 표선면 성읍서문로 14,33.386875270599,126.800070084623,표선면 성읍리,22
1158,정의현일관헌,제주특별자치도 서귀포시 표선면 성읍리 690,33.3882578544114,126.800937494585,표선면 성읍리,52
1159,정주항,제주특별자치도 제주시 조천읍 함덕리,33.5343347298539,126.66409595919,조천읍 함덕리,12
1160,정주항,제주특별자치도 제주시 조천읍 함덕리,33.5343347298539,126.66409595919,조천읍 함덕리,23
1161,정주항,제주특별자치도 제주시 조천읍 함덕리,33.5343347298539,126.66409595919,조천읍 함덕리,43
1162,정주항,제주특별자치도 제주시 조천읍 함덕리,33.5343347298539,126.66409595919,조천읍 함덕리,52
1163,제라진어드벤쳐,제주특별자치도 제주시 조천읍 선교로 33,33.4871768106647,126.715971544248,조천읍 선흘리,46
1164,제라펫,제주특별자치도 제주시 용담로20길 28,33.5078350728313,126.51343777476,용담일동,45
1165,제로스테이션(제로포인트트레일),제주특별자치도 제주시 산지로 25 2층,33.514738716495,126.529207555026,건입동,41
1166,제원한의원,제주특별자치도 제주시 신대로14길 36 2층,33.4879358115551,126.492806172636,연동,33
1167,제원한의원,제주특별자치도 제주시 신대로14길 36 2층,33.4879358115551,126.492806172636,연동,46
1168,제이앤승마클럽,제주특별자치도 제주시 해안마을7길 211,33.4460760834488,126.46898324233,해안동,45
1169,제이원카트클럽,제주특별자치도 제주시 연북로 424,33.479814478159,126.526567474103,도남동,46
1170,제이펜션,제주특별자치도 서귀포시 안덕면 화순서서로64번길 20,33.2552541623106,126.33117292109,안덕면 화순리,12
1171,제이펜션,제주특별자치도 서귀포시 안덕면 화순서서로64번길 20,33.2552541623106,126.33117292109,안덕면 화순리,21
1172,제이펜션,제주특별자치도 서귀포시 안덕면 화순서서로64번길 20,33.2552541623106,126.33117292109,안덕면 화순리,45
1173,제이펜션,제주특별자치도 서귀포시 안덕면 화순서서로64번길 20,33.2552541623106,126.33117292109,안덕면 화순리,51
1174,제이홀스클럽,제주특별자치도 제주시 월산남길 284,33.4499827034001,126.471981563805,해안동,45
1175,제주더팔팔농장,제주특별자치도 서귀포시 성산읍 독자봉로60번길 20,33.3857023201453,126.871189068625,성산읍 신산리,22
1176,제주더팔팔농장,제주특별자치도 서귀포시 성산읍 독자봉로60번길 20,33.3857023201453,126.871189068625,성산읍 신산리,41
1177,제주삼양동유적,제주특별자치도 제주시 선사로2길 13 (삼양일동),33.5235045849897,126.587999545909,삼양일동,32
1178,제주샘주,제주특별자치도 제주시 애월읍 애원로 283,33.4447875750448,126.337530129204,애월읍 상가리,45
1179,제주에코스위츠펜션,제주특별자치도 서귀포시 중문상로 207-13,33.2654003297104,126.427737150454,중문동,45
1180,제주이호털보배낚시,제주시 테우해안로 146,33.4971878861937,126.449346379145,이호일동,42
1181,제주카약올레,제주시 애월읍 애월로1길 22,33.4623287239726,126.310472392965,애월읍 애월리,42
1182,제주카카오캠핑,제주특별자치도 제주시 일주서로 7867,33.4941024482144,126.487311827803,연동,42
1183,제주캘리아트,제주특별자치도 제주시 남성로23길 6,33.5097262314379,126.521722114797,삼도이동,45
1184,제주토이승마장,제주특별자치도 서귀포시 안덕면 동광로 265-14,33.3183160938827,126.345123051543,안덕면 동광리,45
1185,제주패러글라이딩스쿨,"제주특별자치도 제주시 신선길 17-6, 일도주택3층(일도2동)",33.5105063311609,126.530168455797,일도이동,42
1186,제주4.3평화공원,제주특별자치도 제주시 명림로 430,33.4498255893617,126.617747685632,봉개동,23
1187,제주4.3평화공원,제주특별자치도 제주시 명림로 430,33.4498255893617,126.617747685632,봉개동,32
1188,제주901,제주특별자치도 제주시 1100로 2977-10,33.453014510216,126.486211976477,노형동,13
1189,제주901,제주특별자치도 제주시 1100로 2977-10,33.453014510216,126.486211976477,노형동,22
1190,제주901,제주특별자치도 제주시 1100로 2977-10,33.453014510216,126.486211976477,노형동,31
1191,제주가구공방,제주특별자치도 제주시 도련6길 75,33.5109445673373,126.57810878656,도련일동,45
1192,제주고산리유적,제주특별자치도 제주시 한경면 노을해안로 1100,33.3041190488064,126.166211640497,한경면 고산리,52
1193,제주공룡랜드[휴장중],제주특별자치도 제주시 애월읍 광령평화2길 1,33.4427760245733,126.432360687436,애월읍 광령리,32
1194,제주곶자왈도립공원,제주특별자치도 서귀포시 대정읍 에듀시티로 178,33.2832221526695,126.273571694591,대정읍 보성리,11
1195,제주교육박물관,제주특별자치도 제주시 오복 4길 25,33.4943857813367,126.53830183736,이도이동,32
1196,제주국제공항,제주특별자치도 제주시 공항로 2,33.5059364682672,126.495951277797,용담이동,32
1197,제주국제공항(정뜨르비행장),제주특별자치도 제주시 공항로 2,33.5059364682672,126.495951277797,용담이동,52
1198,제주국제예술센터,제주특별자치도 서귀포시 대정읍 서삼중로 117,33.2720409326611,126.199583938384,대정읍 무릉리,32
1199,제주국제컨벤션센터icc,제주특별자치도 서귀포시 중문관광로 224,33.2412896364104,126.424442899565,중문동,21
1200,제주국제컨벤션센터icc,제주특별자치도 서귀포시 중문관광로 224,33.2412896364104,126.424442899565,중문동,32
1201,제주국제평화센터,제주특별자치도 서귀포시 중문 관광로 227-24,33.2443883813113,126.422022289797,중문동,32
1202,제주글램핑(무한자미향),제주특별자치도 제주시 구좌읍 중산간동로 1921,33.4819880497642,126.751994413622,구좌읍 덕천리,42
1203,제주기독교순례길,제주특별자치도 제주시 애월읍 금성하안길 3,33.4465346819647,126.302688575931,애월읍 금성리,11
1204,제주기와,제주특별자치도 제주시 애월읍 광령남4길 45-1,33.4511312379133,126.425421728321,애월읍 광령리,31
1205,제주김녕미로공원,제주특별자치도 제주시 구좌읍 만장굴길 122,33.5362520811345,126.772020633232,구좌읍 김녕리,23
1206,제주난타,제주특별자치도 제주시 선돌목동길 56-26,33.4458273484614,126.547910362525,오등동,23
1207,제주농업학교옛터,제주특별자치도 제주시 전농로 100,33.5040808309281,126.523758884249,삼도일동,52
1208,제주다,제주특별자치도 제주시 애월읍 납읍남로 65,33.4312392981937,126.329293480242,애월읍 납읍리,41
1209,제주다원녹차미로공원,제주특별자치도 서귀포시 산록남로 1258,33.2937131964849,126.422468752111,색달동,32
1210,제주다이브체험다이빙,제주특별자치도 서귀포시 월드컵로 84,33.2421701366696,126.50485572611,강정동,46
1211,제주대학교가는길,제주특별자치도 제주시 제주대학로 102,33.4572369752041,126.56429389472,아라일동,11
1212,제주대학교병원,제주특별자치도 제주시 아란13길 15,33.4672085209581,126.545201028535,아라일동,33
1213,제주대학교병원,제주특별자치도 제주시 아란13길 15,33.4672085209581,126.545201028535,아라일동,46
1214,제주댕댕스푼,제주특별자치도 제주시 구좌읍 동복로 5,33.5535195314173,126.706864917581,구좌읍 동복리,31
1215,제주도립김창열미술관,제주 제주시 한림읍 용금로 883-5,33.3390713180748,126.268671721329,한림읍 월림리,32
1216,제주돌마을공원,제주특별자치도 제주시 한림읍 금능남로 421,33.3537840748852,126.253692271452,한림읍 금능리,41
1217,제주돌문화공원,제주특별자치도 제주시 조천읍 남조로 2023,33.4513645690599,126.656710998359,조천읍 교래리,32
1218,제주돌창고,제주특별자치도 제주시 한경면 조수7길 8,33.3370930657094,126.233568586711,한경면 조수리,31
1219,제주동백수목원,제주특별자치도 서귀포시 남원읍 위미리 927,33.2749750699562,126.677991931671,남원읍 위미리,21
1220,제주라프짚라인,제주특별자치도 제주시 조천읍 선교로 117,33.4869065606552,126.706132319352,조천읍 선흘리,41
1221,제주러브랜드,제주특별자치도 제주시 1100로 2894-72,33.4518907416732,126.488868982382,연동,32
1222,제주레이크힐스컨트리클럽,제주특별자치도 서귀포시 산록남로 1391 (중문동),33.2971177279609,126.435385898389,중문동,48
1223,제주레일바이크,제주특별자치도 제주시 구좌읍 용눈이오름로 641,33.464318039397,126.836601057516,구좌읍 종달리,21
1224,제주레포츠랜드,제주특별자치도 제주시 조천읍 와흘상서2길 47,33.4823230001288,126.638727275764,조천읍 와흘리,41
1225,제주롯데스카이힐컨트리클럽,제주특별자치도 서귀포시 상예로 530,33.2872722238503,126.405279081697,색달동,46
1226,제주만주,제주특별자치도 제주시 애월읍 일주서로 6707 (신엄리) 1층,33.4721188425881,126.368630286254,애월읍 신엄리,31
1227,제주만주,제주특별자치도 제주시 애월읍 일주서로 6707 (신엄리) 1층,33.4721188425881,126.368630286254,애월읍 신엄리,51
1228,제주목관아,제주특별자치도 제주시 관덕로 25,33.5140017079857,126.521803855242,삼도이동,52
1229,제주문예회관,제주특별자치도 제주시 동광로 69,33.5044439719241,126.535172425694,일도이동,32
1230,제주미래교육연구원과학탐구체험장,제주특별자치도 제주시 산록북로 421,33.4262196998869,126.531856332867,오라이동,32
1231,제주미래교육연구원과학탐구체험장,제주특별자치도 제주시 산록북로 421,33.4262196998869,126.531856332867,오라이동,43
1232,제주민속식품,제주특별자치도 제주시 구좌읍 번영로 2178,33.4279157829689,126.750973562959,구좌읍 송당리,46
1233,제주민속촌,제주특별자치도 서귀포시 표선면 민속해안로 631-34,33.3212871409308,126.843088213207,표선면 표선리,32
1234,제주민속촌,제주특별자치도 서귀포시 표선면 민속해안로 631-34,33.3212871409308,126.843088213207,표선면 표선리,51
1235,제주바다체험장,제주특별자치도 제주시 구좌읍 동복리 608-3,33.5546728602452,126.721836813919,구좌읍 동복리,43
1236,제주바다하늘패러투어,제주특별자치도 제주시 한림읍 한창로 1295,33.3569134413186,126.296789669877,한림읍 금악리,45
1237,제주베니스랜드,제주특별자치도 서귀포시 성산읍 서성일로 474,33.4153964214942,126.840702498409,성산읍 난산리,32
1238,제주베스트힐,제주특별자치도 제주시 조천읍 남조로 2109-38,33.454006914774,126.657661087959,조천읍 교래리,41
1239,제주베스트힐펜션&글램핑,제주특별자치도 제주시 조천읍 남조로 2109-36,33.4538358411547,126.657712205208,조천읍 교래리,47
1240,제주별빛누리공원,제주특별자치도 제주시 선돌목동길 60,33.4445760623461,126.549186119712,오등동,32
1241,제주불교성지순례길절로가는길-보시의길,제주특별자치도 제주시 애월읍 수산곰솔길 56,33.4734719036244,126.385903715484,애월읍 수산리,11
1242,제주불교성지순례길절로가는길-인욕의길,제주특별자치도 제주시 산록북로 660,33.4217203735021,126.558750751081,아라일동,11
1243,제주불교성지순례길절로가는길-인욕의길,제주특별자치도 제주시 산록북로 660,33.4217203735021,126.558750751081,아라일동,52
1244,제주불교성지순례길절로가는길-정진의길,제주특별자치도 서귀포시 영실로 246 (하원동),33.3401037178534,126.480513093074,하원동,11
1245,제주불교성지순례길절로가는길-정진의길,제주특별자치도 서귀포시 영실로 246 (하원동),33.3401037178534,126.480513093074,하원동,52
1246,제주불교성지순례길절로가는길-지계의길,제주특별자치도 제주시 서연길 10,33.4972850293139,126.499833143944,연동,11
1247,제주불교성지순례길절로가는길-지계의길,제주특별자치도 제주시 서연길 10,33.4972850293139,126.499833143944,연동,52
1248,제주불교성지순례길절로가는길-선정의길,제주특별자치도 서귀포시 516로771번길 59,33.3199731935031,126.593109341023,상효동,11
1249,제주불빛정원테마파크,제주특별자치도 제주시 애월읍 평화로 2346,33.4225978482836,126.408965433887,애월읍 유수암리,22
1250,제주불빛정원테마파크,제주특별자치도 제주시 애월읍 평화로 2346,33.4225978482836,126.408965433887,애월읍 유수암리,41
1251,제주블루앤씨펜션,제주특별자치도 서귀포시 성산읍 서성일로 188-18,33.4027809018131,126.814657454138,성산읍 삼달리,12
1252,제주블루앤씨펜션,제주특별자치도 서귀포시 성산읍 서성일로 188-18,33.4027809018131,126.814657454138,성산읍 삼달리,21
1253,제주블루앤씨펜션,제주특별자치도 서귀포시 성산읍 서성일로 188-18,33.4027809018131,126.814657454138,성산읍 삼달리,45
1254,제주블루앤씨펜션,제주특별자치도 서귀포시 성산읍 서성일로 188-18,33.4027809018131,126.814657454138,성산읍 삼달리,51
1255,제주빅볼랜드,제주특별자치도 제주시 구좌읍 송당리 산164-4,33.4427392980462,126.775209483449,구좌읍 송당리,43
